%time,field.header.seq,field.header.stamp,field.header.frame_id,field.ground_distance,field.flow_x,field.flow_y,field.velocity_x,field.velocity_y,field.quality
478948000000,39265,478948000000,0,0.300000011921,-8,0,0.258079856634,0.0117985773832,52
478958000000,39266,478958000000,0,0.300000011921,-8,0,0.242868006229,0.0186159349978,50
478969000000,39267,478969000000,0,0.300000011921,-8,0,0.26212143898,0.00844543334097,55
478979000000,39268,478979000000,0,0.300000011921,-7,0,0.238275274634,0.00422240840271,53
478989000000,39269,478989000000,0,0.300000011921,-8,0,0.251470416784,0.00612332299352,53
479001000000,39270,479001000000,0,0.300000011921,-7,0,0.234518736601,0.0126336701214,53
479010000000,39271,479010000000,0,0.300000011921,-8,0,0.264611899853,0.0143107082695,50
479021000000,39272,479021000000,0,0.300000011921,-8,0,0.256075024605,0.0121471472085,56
479032000000,39273,479032000000,0,0.300000011921,-7,0,0.235638171434,0.0127553381026,55
479041000000,39274,479041000000,0,0.300000011921,-8,0,0.258333921432,0.00826741941273,45
479052000000,39275,479052000000,0,0.300000011921,-8,0,0.245853424072,0.00304830004461,50
479062000000,39276,479062000000,0,0.300000011921,-8,0,0.262871801853,0.0126482499763,52
479073000000,39277,479073000000,0,0.300000011921,-7,0,0.22754342854,0.0109472796321,53
479083000000,39278,479083000000,0,0.300000011921,-8,0,0.25902068615,0.00508228875697,48
479094000000,39279,479094000000,0,0.300000011921,-8,0,0.250248581171,0.00522138271481,52
479105000000,39280,479105000000,0,0.300000011921,-7,0,0.231319978833,0.00681687425822,60
479115000000,39281,479115000000,0,0.300000011921,-7,0,0.237074792385,0.0101836882532,56
479125000000,39282,479125000000,0,0.300000011921,-7,0,0.229565083981,0.00458201998845,49
479136000000,39283,479136000000,0,0.300000011921,-8,0,0.267546772957,0.0118388812989,53
479146000000,39284,479146000000,0,0.300000011921,-7,0,0.233987063169,0.0115645863116,54
479157000000,39285,479157000000,0,0.300000011921,-8,0,0.255365848541,0.0151143595576,50
479167000000,39286,479167000000,0,0.300000011921,-7,0,0.233585804701,-0.00954034738243,58
479177000000,39287,479177000000,0,0.300000011921,-8,0,0.258071660995,-0.00793231558055,48
479188000000,39288,479188000000,0,0.300000011921,-8,0,0.260286092758,0.00782123580575,57
479198000000,39289,479198000000,0,0.300000011921,-7,0,0.229117363691,0.0160721428692,52
479208000000,39290,479208000000,0,0.300000011921,-8,0,0.256698668003,0.0102260988206,50
479219000000,39291,479219000000,0,0.300000011921,-8,0,0.245356559753,0.00474707596004,47
479230000000,39292,479230000000,0,0.300000011921,-8,0,0.241855800152,0.00261493306607,55
479240000000,39293,479240000000,0,0.300000011921,-7,0,0.220656126738,0.00762562267482,56
479250000000,39294,479250000000,0,0.300000011921,-8,0,0.254684865475,0.00566394813359,48
479261000000,39295,479261000000,0,0.300000011921,-8,0,0.256947696209,0.0079170903191,53
479272000000,39296,479272000000,0,0.300000011921,-7,0,0.235156774521,0.0150446109474,56
479282000000,39297,479282000000,0,0.300000011921,-8,0,0.242468252778,0.0169695615768,53
479292000000,39298,479292000000,0,0.300000011921,-7,0,0.216220423579,0.0155709227547,46
479303000000,39299,479303000000,0,0.300000011921,-8,0,0.267203480005,0.00421034358442,52
479314000000,39300,479314000000,0,0.300000011921,-7,0,0.235945910215,0.00643848208711,58
479324000000,39301,479324000000,0,0.300000011921,-8,0,0.245066285133,0.0100542064756,61
479334000000,39302,479334000000,0,0.300000011921,-6,0,0.186764538288,-0.0187598057091,54
479344000000,39303,479344000000,0,0.300000011921,-8,0,0.248130053282,-0.0121472831815,51
479355000000,39304,479355000000,0,0.300000011921,-8,0,0.251871019602,0.00572700286284,54
479366000000,39305,479366000000,0,0.300000011921,-7,0,0.229774653912,0.00331124081276,57
479375000000,39306,479375000000,0,0.300000011921,-8,0,0.25027358532,0.00682598166168,49
479386000000,39307,479386000000,0,0.300000011921,-8,0,0.243787735701,0.00575910508633,55
479397000000,39308,479397000000,0,0.300000011921,-8,0,0.260144889355,0.00141357630491,54
479407000000,39309,479407000000,0,0.300000011921,-7,0,0.218395531178,0.00754321319982,48
479417000000,39310,479417000000,0,0.300000011921,-8,0,0.25583383441,0.0127182593569,48
479428000000,39311,479428000000,0,0.300000011921,-8,0,0.254880607128,0.00636855978519,55
479438000000,39312,479438000000,0,0.300000011921,-7,0,0.234568536282,0.00462303869426,52
479449000000,39313,479449000000,0,0.300000011921,-8,0,0.244712650776,0.0158766806126,53
479459000000,39314,479459000000,0,0.300000011921,-7,0,0.226518765092,0.00843717344105,48
479470000000,39315,479470000000,0,0.300000011921,-8,0,0.257207602262,0.00811618939042,50
479481000000,39316,479481000000,0,0.300000011921,-7,0,0.230927318335,0.00743727572262,59
479491000000,39317,479491000000,0,0.300000011921,-8,0,0.244551360607,0.00681011704728,56
479501000000,39318,479501000000,0,0.300000011921,-7,0,0.233202978969,0.00793082360178,53
479511000000,39319,479511000000,0,0.300000011921,-8,0,0.264878213406,0.0106991734356,50
479522000000,39320,479522000000,0,0.300000011921,-8,0,0.260469615459,0.0170881487429,53
479532000000,39321,479532000000,0,0.300000011921,-7,0,0.233467623591,0.015497055836,47
479542000000,39322,479542000000,0,0.300000011921,-8,0,0.252877235413,0.00517158349976,49
479553000000,39323,479553000000,0,0.300000011921,-8,0,0.244879692793,0.00328602455556,54
479564000000,39324,479564000000,0,0.300000011921,-8,0,0.255279898643,0.0072364625521,55
479574000000,39325,479574000000,0,0.300000011921,-7,0,0.239190936089,0.0143677555025,49
479584000000,39326,479584000000,0,0.300000011921,-8,0,0.25810521841,0.0140301790088,48
479595000000,39327,479595000000,0,0.300000011921,-9,0,0.277826666832,0.0155710624531,51
479605000000,39328,479605000000,0,0.300000011921,-7,0,0.234881728888,0.0123401153833,53
479616000000,39329,479616000000,0,0.300000011921,-8,0,0.244081109762,0.0198650322855,53
479626000000,39330,479626000000,0,0.300000011921,-7,0,0.233560413122,0.00546762859449,43
479636000000,39331,479636000000,0,0.300000011921,-9,0,0.276534736156,0.00990152545273,48
479647000000,39332,479647000000,0,0.300000011921,-7,0,0.236818820238,0.00822721794248,53
479658000000,39333,479658000000,0,0.300000011921,-8,0,0.253942281008,0.022786423564,54
479667000000,39334,479667000000,0,0.300000011921,-7,0,0.238997787237,0.0088729839772,47
479678000000,39335,479678000000,0,0.300000011921,-9,0,0.270895332098,0.00795148219913,53
479689000000,39336,479689000000,0,0.300000011921,-8,0,0.264541089535,0.0081107635051,54
479699000000,39337,479699000000,0,0.300000011921,-7,0,0.229088738561,0.00988823547959,53
479709000000,39338,479709000000,0,0.300000011921,-8,0,0.255685448647,0.0125144748017,47
479720000000,39339,479720000000,0,0.300000011921,-7,0,0.238938733935,0.0107006849721,51
479731000000,39340,479731000000,0,0.300000011921,-8,0,0.258191943169,0.0202238392085,55
479741000000,39341,479741000000,0,0.300000011921,-7,0,0.230382233858,0.0123010324314,57
479751000000,39342,479751000000,0,0.300000011921,-8,0,0.257501780987,0.000762402079999,45
479762000000,39343,479762000000,0,0.300000011921,-8,0,0.268137335777,0.00627746200189,49
479773000000,39344,479773000000,0,0.300000011921,-8,0,0.24206545949,0.0146301612258,57
479784000000,39345,479784000000,0,0.300000011921,-8,0,0.255204200745,0.0171222910285,55
479793000000,39346,479793000000,0,0.300000011921,-6,0,0.186517953873,-0.0248860847205,53
479803000000,39347,479803000000,0,0.300000011921,-8,0,0.268276184797,0.00669620139524,51
479814000000,39348,479814000000,0,0.300000011921,-7,0,0.233110487461,0.00506121525541,53
479824000000,39349,479824000000,0,0.300000011921,-8,0,0.248277306557,0.00897835660726,50
479835000000,39350,479835000000,0,0.300000011921,-7,0,0.236626565456,0.0110584478825,50
479845000000,39351,479845000000,0,0.300000011921,-8,0,0.264767289162,0.0148133533075,46
479856000000,39352,479856000000,0,0.300000011921,-8,0,0.252083450556,0.0120216850191,59
479866000000,39353,479866000000,0,0.300000011921,-7,0,0.230314135551,0.0144754229113,56
479876000000,39354,479876000000,0,0.300000011921,-8,0,0.254358142614,0.0108241699636,50
479887000000,39355,479887000000,0,0.300000011921,-8,0,0.246257483959,0.0102632977068,54
479898000000,39356,479898000000,0,0.300000011921,-8,0,0.262056052685,0.00573441619053,58
479908000000,39357,479908000000,0,0.300000011921,-7,0,0.233426705003,0.00940540619195,50
479918000000,39358,479918000000,0,0.300000011921,-8,0,0.256190210581,0.00653263507411,53
479929000000,39359,479929000000,0,0.300000011921,-8,0,0.25856590271,0.0101227015257,57
479941000000,39360,479941000000,0,0.300000011921,-7,0,0.23378008604,0.00961700174958,58
479950000000,39361,479950000000,0,0.300000011921,-8,0,0.242717534304,0.0144074968994,51
479960000000,39362,479960000000,0,0.300000011921,-7,0,0.2318533957,0.0107189007103,52
479971000000,39363,479971000000,0,0.300000011921,-8,0,0.266333967447,0.0091724190861,55
479981000000,39364,479981000000,0,0.300000011921,-7,0,0.230167403817,0.00870141666383,54
479991000000,39365,479991000000,0,0.300000011921,-8,0,0.260925412178,0.0192230530083,51
480002000000,39366,480002000000,0,0.300000011921,-7,0,0.234196662903,0.00410416349769,57
480012000000,39367,480012000000,0,0.300000011921,-8,0,0.26582890749,0.00896338466555,53
480023000000,39368,480023000000,0,0.300000011921,-8,0,0.25429213047,0.0178379528224,56
480033000000,39369,480033000000,0,0.300000011921,-8,0,0.243164747953,0.01484424714,55
480044000000,39370,480044000000,0,0.300000011921,-8,0,0.256870657206,0.0150051917881,53
480054000000,39371,480054000000,0,0.300000011921,-8,0,0.24170589447,0.00936525408179,58
480065000000,39372,480065000000,0,0.300000011921,-8,0,0.25810828805,0.00832264125347,54
480075000000,39373,480075000000,0,0.300000011921,-7,0,0.235629081726,0.0104831857607,50
480085000000,39374,480085000000,0,0.300000011921,-8,0,0.246464133263,0.0133160995319,50
480097000000,39375,480097000000,0,0.300000011921,-8,0,0.262254118919,0.00591671746224,54
480106000000,39376,480106000000,0,0.300000011921,-7,0,0.238318949938,0.0101705919951,49
480117000000,39377,480117000000,0,0.300000011921,-8,0,0.243551433086,0.0133367329836,51
480127000000,39378,480127000000,0,0.300000011921,-7,0,0.23354806006,0.0105454940349,46
480137000000,39379,480137000000,0,0.300000011921,-8,0,0.266224384308,0.0013552873861,48
480148000000,39380,480148000000,0,0.300000011921,-7,0,0.225821748376,0.0173982642591,50
480158000000,39381,480158000000,0,0.300000011921,-8,0,0.258183717728,0.0116671454161,44
480169000000,39382,480169000000,0,0.300000011921,-8,0,0.24012824893,0.0108246337622,50
480179000000,39383,480179000000,0,0.300000011921,-8,0,0.265855967999,0.0130052287132,55
480190000000,39384,480190000000,0,0.300000011921,-8,0,0.250139653683,0.0180201698095,56
480200000000,39385,480200000000,0,0.300000011921,-7,0,0.229465350509,0.00507270079106,44
480210000000,39386,480210000000,0,0.300000011921,-8,0,0.266854047775,0.00808370113373,46
480221000000,39387,480221000000,0,0.300000011921,-8,0,0.245642527938,0.0115779777989,55
480231000000,39388,480231000000,0,0.300000011921,-8,0,0.253156006336,0.0252360776067,51
480241000000,39389,480241000000,0,0.300000011921,-7,0,0.234659075737,0.0144266355783,44
480252000000,39390,480252000000,0,0.300000011921,-8,0,0.262166500092,0.0173285845667,51
480263000000,39391,480263000000,0,0.300000011921,-8,0,0.259227991104,0.0181517060846,53
480273000000,39392,480273000000,0,0.300000011921,-7,0,0.236343532801,0.0110750682652,53
480283000000,39393,480283000000,0,0.300000011921,-8,0,0.254673480988,0.00817446317524,46
480294000000,39394,480294000000,0,0.300000011921,-8,0,0.244271457195,0.0051032518968,46
480304000000,39395,480304000000,0,0.300000011921,-8,0,0.269313901663,0.00816589407623,49
480315000000,39396,480315000000,0,0.300000011921,-7,0,0.237159311771,0.00811589602381,52
480325000000,39397,480325000000,0,0.300000011921,-8,0,0.261192083359,0.0107061527669,52
480336000000,39398,480336000000,0,0.300000011921,-9,0,0.272056102753,0.0110708400607,54
480347000000,39399,480347000000,0,0.300000011921,-8,0,0.244996547699,0.0119769219309,58
480357000000,39400,480357000000,0,0.300000011921,-8,0,0.261212736368,0.0115722278133,51
480367000000,39401,480367000000,0,0.300000011921,-8,0,0.247667640448,0.0135586820543,50
480378000000,39402,480378000000,0,0.300000011921,-9,0,0.271750807762,0.00221914169379,52
480389000000,39403,480389000000,0,0.300000011921,-8,0,0.241440445185,0.00325006991625,62
480399000000,39404,480399000000,0,0.300000011921,-9,0,0.273550093174,0.0171208586544,54
480410000000,39405,480410000000,0,0.300000011921,-8,0,0.241572856903,0.0168637987226,53
480420000000,39406,480420000000,0,0.300000011921,-9,0,0.272591859102,-0.000796675565653,55
480430000000,39407,480430000000,0,0.300000011921,-8,0,0.247476518154,-0.00790825951844,51
480441000000,39408,480441000000,0,0.300000011921,-8,0,0.255326509476,0.0101859075949,60
480450000000,39409,480450000000,0,0.300000011921,-8,0,0.258025348186,0.0140849705786,48
480461000000,39410,480461000000,0,0.300000011921,-8,0,0.247785210609,0.000692272558808,54
480472000000,39411,480472000000,0,0.300000011921,-7,0,0.230852797627,0.00472011882812,55
480482000000,39412,480482000000,0,0.300000011921,-8,0,0.240049734712,0.0218903198838,58
480492000000,39413,480492000000,0,0.300000011921,-7,0,0.224372118711,-0.00898901000619,44
480503000000,39414,480503000000,0,0.300000011921,-9,0,0.272247493267,0.00773554202169,52
480514000000,39415,480514000000,0,0.300000011921,-8,0,0.240232646465,0.0143971210346,56
480523000000,39416,480523000000,0,0.300000011921,-7,0,0.238193064928,8.60877335072e-05,48
480534000000,39417,480534000000,0,0.300000011921,-8,0,0.240491241217,0.00993688963354,49
480545000000,39418,480545000000,0,0.300000011921,-9,0,0.272420525551,0.0105529520661,52
480555000000,39419,480555000000,0,0.300000011921,-8,0,0.242096960545,0.0121484696865,55
480566000000,39420,480566000000,0,0.300000011921,-8,0,0.24758605659,0.0118488930166,51
480576000000,39421,480576000000,0,0.300000011921,-7,0,0.216174438596,-0.0068621863611,52
480586000000,39422,480586000000,0,0.300000011921,-9,0,0.27053374052,0.00637805974111,48
480597000000,39423,480597000000,0,0.300000011921,-8,0,0.261437594891,0.0115838553756,54
480607000000,39424,480607000000,0,0.300000011921,-7,0,0.235334545374,0.0127410748973,49
480617000000,39425,480617000000,0,0.300000011921,-8,0,0.262758910656,0.00975171569735,44
480628000000,39426,480628000000,0,0.300000011921,-7,0,0.231841623783,0.0174473822117,47
480638000000,39427,480638000000,0,0.300000011921,-8,0,0.269768238068,0.00816687289625,51
480649000000,39428,480649000000,0,0.300000011921,-7,0,0.233535021544,0.0139048900455,49
480659000000,39429,480659000000,0,0.300000011921,-8,0,0.260116636753,0.00131800200325,41
480669000000,39430,480669000000,0,0.300000011921,-8,0,0.263762146235,-0.000514077488333,48
480680000000,39431,480680000000,0,0.300000011921,-8,0,0.252122282982,0.00195023836568,51
480690000000,39432,480690000000,0,0.300000011921,-8,0,0.259140133858,0.0119308941066,49
480701000000,39433,480701000000,0,0.300000011921,-7,0,0.237959653139,0.00682871323079,51
480712000000,39434,480712000000,0,0.300000011921,-9,0,0.275602817535,0.00736443139613,54
480722000000,39435,480722000000,0,0.300000011921,-7,0,0.233469441533,0.00811247248203,49
480733000000,39436,480733000000,0,0.300000011921,-8,0,0.250416994095,0.0106763467193,54
480742000000,39437,480742000000,0,0.300000011921,-6,0,0.188371688128,0.00813756138086,44
480754000000,39438,480754000000,0,0.300000011921,-9,0,0.271484971046,0.00514208478853,50
480764000000,39439,480764000000,0,0.300000011921,-7,0,0.231304496527,-0.00310549605638,56
480774000000,39440,480774000000,0,0.300000011921,-7,0,0.234394073486,0.016725698486,51
480784000000,39441,480784000000,0,0.300000011921,-8,0,0.242884904146,-0.0059174709022,48
480795000000,39442,480795000000,0,0.300000011921,-8,0,0.244173437357,0.013895040378,52
480805000000,39443,480805000000,0,0.300000011921,-8,0,0.2595295012,0.00835283380002,51
480816000000,39444,480816000000,0,0.300000011921,-7,0,0.22950860858,0.00802466087043,50
480826000000,39445,480826000000,0,0.300000011921,-8,0,0.25304877758,0.00779477786273,47
480837000000,39446,480837000000,0,0.300000011921,-7,-1,0.238926321268,0.0350067354739,52
480848000000,39447,480848000000,0,0.300000011921,-7,0,0.238433808088,-0.00341349141672,57
480858000000,39448,480858000000,0,0.300000011921,-8,0,0.243600070477,0.00369374454021,50
480868000000,39449,480868000000,0,0.300000011921,-7,0,0.233679994941,0.00351699138992,48
480879000000,39450,480879000000,0,0.300000011921,-8,0,0.269012451172,0.0096481256187,45
480889000000,39451,480889000000,0,0.300000011921,-7,0,0.232173860073,0.0110775604844,53
480899000000,39452,480899000000,0,0.300000011921,-8,0,0.253698468208,0.0163634940982,50
480909000000,39453,480909000000,0,0.300000011921,-7,0,0.235506758094,0.00829402729869,46
480920000000,39454,480920000000,0,0.300000011921,-9,0,0.274011224508,0.0171767938882,51
480931000000,39455,480931000000,0,0.300000011921,-7,0,0.235340639949,-0.00860064849257,53
480941000000,39456,480941000000,0,0.300000011921,-7,0,0.233178660274,0.00517242960632,48
480951000000,39457,480951000000,0,0.300000011921,-8,0,0.256287008524,0.00486027263105,46
480962000000,39458,480962000000,0,0.300000011921,-8,0,0.250683397055,0.0107184238732,50
480972000000,39459,480972000000,0,0.300000011921,-8,0,0.26040866971,0.0155545640737,49
480983000000,39460,480983000000,0,0.300000011921,-7,0,0.229635328054,0.0121045820415,49
480993000000,39461,480993000000,0,0.300000011921,-8,0,0.259549915791,0.00844310969114,42
481004000000,39462,481004000000,0,0.300000011921,-8,0,0.269587695599,0.00469286832958,51
481014000000,39463,481014000000,0,0.300000011921,-8,0,0.242997944355,0.0116343256086,53
481025000000,39464,481025000000,0,0.300000011921,-8,0,0.261814206839,0.023880623281,52
481035000000,39465,481035000000,0,0.300000011921,-7,0,0.233089119196,0.00872798264027,47
481046000000,39466,481046000000,0,0.300000011921,-8,0,0.251845985651,0.0048588719219,53
481056000000,39467,481056000000,0,0.300000011921,-8,0,0.243380278349,0.0107460767031,52
481066000000,39468,481066000000,0,0.300000011921,-8,0,0.258912861347,0.00812933128327,45
481077000000,39469,481077000000,0,0.300000011921,-8,0,0.241634175181,0.0103071872145,49
481087000000,39470,481087000000,0,0.300000011921,-9,0,0.278223276138,0.00770631805062,50
481098000000,39471,481098000000,0,0.300000011921,-8,0,0.262242287397,0.013189772144,54
481108000000,39472,481108000000,0,0.300000011921,-8,0,0.248685240746,0.0197914987803,53
481118000000,39473,481118000000,0,0.300000011921,-8,0,0.262096315622,0.0124556235969,48
481129000000,39474,481129000000,0,0.300000011921,-8,0,0.257455617189,0.00510709313676,51
481139000000,39475,481139000000,0,0.300000011921,-8,0,0.261714220047,0.00599586544558,50
481150000000,39476,481150000000,0,0.300000011921,-8,0,0.241233468056,0.0161274001002,49
481160000000,39477,481160000000,0,0.300000011921,-9,0,0.279966711998,0.0138409007341,41
481171000000,39478,481171000000,0,0.300000011921,-9,0,0.27716755867,0.0220452304929,56
481181000000,39479,481181000000,0,0.300000011921,-8,0,0.242349535227,0.00664304196835,55
481192000000,39480,481192000000,0,0.300000011921,-8,0,0.268735051155,0.0202220156789,50
481203000000,39481,481203000000,0,0.300000011921,-7,0,0.232655450702,0.00150679924991,54
481213000000,39482,481213000000,0,0.300000011921,-9,0,0.27367156744,0.0039207553491,53
481223000000,39483,481223000000,0,0.300000011921,-8,0,0.244306698442,0.0113519988954,55
481233000000,39484,481233000000,0,0.300000011921,-9,0,0.276804924011,0.00973989721388,49
481244000000,39485,481244000000,0,0.300000011921,-8,0,0.251041740179,0.0045780222863,56
481254000000,39486,481254000000,0,0.300000011921,-9,0,0.29123878479,0.0127613442019,50
481264000000,39487,481264000000,0,0.300000011921,-8,0,0.267708688974,0.000985040329397,47
481275000000,39488,481275000000,0,0.300000011921,-8,0,0.255701184273,0.0159443933517,44
481285000000,39489,481285000000,0,0.300000011921,-9,0,0.287625014782,0.0155506115407,46
481296000000,39490,481296000000,0,0.300000011921,-8,0,0.265836209059,0.0138424215838,53
481306000000,39491,481306000000,0,0.300000011921,-9,0,0.280086040497,0.0162726808339,52
481317000000,39492,481317000000,0,0.300000011921,-8,0,0.252303868532,0.0155132012442,49
481327000000,39493,481327000000,0,0.300000011921,-9,0,0.276111066341,0.00627742707729,48
481338000000,39494,481338000000,0,0.300000011921,-9,0,0.286129504442,0.0112935239449,50
481348000000,39495,481348000000,0,0.300000011921,-7,0,0.235548943281,0.00853353925049,52
481358000000,39496,481358000000,0,0.300000011921,-9,0,0.275848925114,0.00925988983363,46
481369000000,39497,481369000000,0,0.300000011921,-8,0,0.248956441879,0.0101855844259,41
481379000000,39498,481379000000,0,0.300000011921,-9,0,0.28524774313,0.0180218722671,50
481390000000,39499,481390000000,0,0.300000011921,-8,0,0.25101801753,0.00668291607872,52
481400000000,39500,481400000000,0,0.300000011921,-9,0,0.272467941046,0.0114239873365,47
481411000000,39501,481411000000,0,0.300000011921,-8,0,0.244417399168,0.00954981800169,50
481422000000,39502,481422000000,0,0.300000011921,-9,0,0.280378162861,0.0111086769029,56
481432000000,39503,481432000000,0,0.300000011921,-9,0,0.27664488554,0.0124244764447,50
481442000000,39504,481442000000,0,0.300000011921,-8,0,0.24353210628,0.0166326183826,45
481452000000,39505,481452000000,0,0.300000011921,-9,0,0.27281242609,0.0078953281045,48
481463000000,39506,481463000000,0,0.300000011921,-8,0,0.248363137245,0.0016308343038,53
481473000000,39507,481473000000,0,0.300000011921,-8,0,0.266425281763,0.0116334930062,51
481484000000,39508,481484000000,0,0.300000011921,-8,0,0.249988108873,0.00995775032789,51
481494000000,39509,481494000000,0,0.300000011921,-8,0,0.264772444963,0.0114790610969,53
481505000000,39510,481505000000,0,0.300000011921,-9,0,0.272102355957,0.0100211780518,55
481515000000,39511,481515000000,0,0.300000011921,-7,0,0.21520511806,0.00168374460191,47
481525000000,39512,481525000000,0,0.300000011921,-8,0,0.264097213745,-0.0113884098828,47
481536000000,39513,481536000000,0,0.300000011921,-8,0,0.246849477291,0.00559409428388,49
481546000000,39514,481546000000,0,0.300000011921,-8,0,0.243812680244,0.0111594637856,51
481557000000,39515,481557000000,0,0.300000011921,-7,0,0.237546890974,0.0147369932383,49
481567000000,39516,481567000000,0,0.300000011921,-8,0,0.261837184429,0.0194052699953,43
481578000000,39517,481578000000,0,0.300000011921,-8,0,0.247659087181,0.00788554642349,48
481588000000,39518,481588000000,0,0.300000011921,-8,0,0.269136339426,0.0096500730142,47
481599000000,39519,481599000000,0,0.300000011921,-8,0,0.260481357574,0.0157555565238,52
481609000000,39520,481609000000,0,0.300000011921,-8,0,0.247734457254,0.0167445074767,50
481620000000,39521,481620000000,0,0.300000011921,-8,0,0.263490438461,0.00272144423798,55
481630000000,39522,481630000000,0,0.300000011921,-7,0,0.238756805658,0.0145043488592,55
481640000000,39523,481640000000,0,0.300000011921,-8,0,0.256230294704,0.00932285375893,52
481650000000,39524,481650000000,0,0.300000011921,-8,0,0.240565210581,0.00704639125615,43
481661000000,39525,481661000000,0,0.300000011921,-8,0,0.26455450058,0.00512871332467,45
481672000000,39526,481672000000,0,0.300000011921,-8,0,0.256835222244,0.0164237171412,52
481682000000,39527,481682000000,0,0.300000011921,-7,0,0.216953679919,0.0241842865944,51
481692000000,39528,481692000000,0,0.300000011921,-8,0,0.250635653734,0.0141357509419,40
481703000000,39529,481703000000,0,0.300000011921,-7,0,0.230377078056,0.00956078711897,48
481713000000,39530,481713000000,0,0.300000011921,-8,0,0.257545799017,0.00221867463551,48
481724000000,39531,481724000000,0,0.300000011921,-7,0,0.22821393609,0.0172346048057,52
481734000000,39532,481734000000,0,0.300000011921,-7,0,0.239190906286,0.0102642467245,49
481745000000,39533,481745000000,0,0.300000011921,-8,0,0.242320984602,0.00591475702822,52
481756000000,39534,481756000000,0,0.300000011921,-8,0,0.251368194818,0.000945578329265,57
481766000000,39535,481766000000,0,0.300000011921,-8,0,0.244877487421,0.015456981957,57
481776000000,39536,481776000000,0,0.300000011921,-7,0,0.223125308752,0.0130395488814,50
481786000000,39537,481786000000,0,0.300000011921,-8,0,0.26358500123,0.00358658703044,45
481797000000,39538,481797000000,0,0.300000011921,-7,0,0.235368669033,0.00858757924289,53
481807000000,39539,481807000000,0,0.300000011921,-8,0,0.246726632118,0.0157472454011,51
481818000000,39540,481818000000,0,0.300000011921,-7,0,0.233152002096,0.00855360645801,47
481829000000,39541,481829000000,0,0.300000011921,-8,1,0.25256729126,-0.030418002978,55
481839000000,39542,481839000000,0,0.300000011921,-8,0,0.245903402567,-0.000415229704231,56
481849000000,39543,481849000000,0,0.300000011921,-7,0,0.2218721807,0.0168928690255,54
481859000000,39544,481859000000,0,0.300000011921,-8,0,0.248094916344,0.0220022536814,43
481870000000,39545,481870000000,0,0.300000011921,-7,0,0.239058971405,0.00634370930493,46
481880000000,39546,481880000000,0,0.300000011921,-7,0,0.225854769349,0.00316938664764,52
481891000000,39547,481891000000,0,0.300000011921,-7,0,0.217944964767,0.0178170725703,51
481901000000,39548,481901000000,0,0.300000011921,-8,0,0.242848411202,0.0124354176223,46
481911000000,39549,481911000000,0,0.300000011921,-8,0,0.258589863777,0.0108346939087,48
481922000000,39550,481922000000,0,0.300000011921,-7,0,0.230981573462,0.00916227977723,51
481932000000,39551,481932000000,0,0.300000011921,-7,0,0.234454393387,0.00928672961891,48
481942000000,39552,481942000000,0,0.300000011921,-7,0,0.225814580917,0.0105863632634,43
481954000000,39553,481954000000,0,0.300000011921,-8,0,0.245538383722,0.00625162292272,53
481964000000,39554,481964000000,0,0.300000011921,-7,0,0.227048829198,0.0164206549525,57
481974000000,39555,481974000000,0,0.300000011921,-7,0,0.237997889519,0.0155399180949,44
481986000000,39556,481986000000,0,0.300000011921,-5,0,0.153269588947,-0.0284912642092,59
481996000000,39557,481996000000,0,0.300000011921,-7,0,0.225855976343,-0.0159499123693,56
482007000000,39558,482007000000,0,0.300000011921,-7,0,0.215743392706,0.0179890841246,62
482016000000,39559,482016000000,0,0.300000011921,-6,0,0.194760531187,-0.00358736002818,47
482026000000,39560,482026000000,0,0.300000011921,-7,0,0.234074324369,0.0136955445632,50
482037000000,39561,482037000000,0,0.300000011921,-7,0,0.235407829285,-0.00587704218924,49
482047000000,39562,482047000000,0,0.300000011921,-8,0,0.248606622219,0.0137546025217,52
482058000000,39563,482058000000,0,0.300000011921,-7,0,0.211708277464,0.0130539294332,51
482067000000,39564,482067000000,0,0.300000011921,-7,0,0.238413497806,-0.00399817340076,40
482079000000,39565,482079000000,0,0.300000011921,-8,0,0.243736684322,0.00916256662458,49
482089000000,39566,482089000000,0,0.300000011921,-7,0,0.232446402311,0.0136399660259,50
482100000000,39567,482100000000,0,0.300000011921,-7,0,0.231743216515,0.00236309063621,51
482110000000,39568,482110000000,0,0.300000011921,-7,0,0.21665635705,0.0102762719616,45
482120000000,39569,482120000000,0,0.300000011921,-8,0,0.247246414423,0.00322956754826,50
482131000000,39570,482131000000,0,0.300000011921,-7,0,0.221286058426,0.00905590690672,53
482142000000,39571,482142000000,0,0.300000011921,-7,0,0.229991853237,0.0151596534997,54
482151000000,39572,482151000000,0,0.300000011921,-7,0,0.210535943508,0.00279796821997,44
482163000000,39573,482163000000,0,0.300000011921,-8,0,0.243260994554,0.0093686748296,55
482173000000,39574,482173000000,0,0.300000011921,-8,0,0.246947571635,0.0085927080363,51
482183000000,39575,482183000000,0,0.300000011921,-7,0,0.211319923401,0.0127584328875,47
482194000000,39576,482194000000,0,0.300000011921,-8,0,0.244134455919,0.00676875561476,51
482204000000,39577,482204000000,0,0.300000011921,-7,0,0.231446892023,0.0089761428535,53
482214000000,39578,482214000000,0,0.300000011921,-8,0,0.248409718275,0.0144750140607,45
482224000000,39579,482224000000,0,0.300000011921,-7,0,0.221007168293,0.00771161913872,42
482235000000,39580,482235000000,0,0.300000011921,-8,0,0.24752445519,0.00976446643472,45
482245000000,39581,482245000000,0,0.300000011921,-7,0,0.238219916821,0.00855184346437,48
482256000000,39582,482256000000,0,0.300000011921,-7,0,0.227694958448,0.00292719574645,47
482266000000,39583,482266000000,0,0.300000011921,-7,0,0.238277569413,0.00981060601771,47
482277000000,39584,482277000000,0,0.300000011921,-7,0,0.228741213679,0.0121801532805,48
482288000000,39585,482288000000,0,0.300000011921,-8,0,0.256009697914,0.00416472041979,51
482298000000,39586,482298000000,0,0.300000011921,-7,0,0.231256335974,0.0127348555252,56
482309000000,39587,482309000000,0,0.300000011921,-7,0,0.238230407238,0.0135523676872,55
482319000000,39588,482319000000,0,0.300000011921,-7,0,0.227585166693,0.0106759173796,52
482329000000,39589,482329000000,0,0.300000011921,-8,0,0.254503428936,0.0108008719981,53
482340000000,39590,482340000000,0,0.300000011921,-8,0,0.24124597013,0.0165369641036,58
482350000000,39591,482350000000,0,0.300000011921,-7,0,0.217704445124,0.0086632007733,47
482361000000,39592,482361000000,0,0.300000011921,-8,0,0.245374530554,0.00821087416261,53
482371000000,39593,482371000000,0,0.300000011921,-7,0,0.22477710247,0.00698670279235,54
482382000000,39594,482382000000,0,0.300000011921,-8,0,0.250527799129,0.00523520167917,54
482392000000,39595,482392000000,0,0.300000011921,-7,0,0.21869289875,0.00597544340417,54
482402000000,39596,482402000000,0,0.300000011921,-8,0,0.243612989783,0.0109374336898,49
482413000000,39597,482413000000,0,0.300000011921,-8,0,0.252191603184,0.0024996616412,55
482423000000,39598,482423000000,0,0.300000011921,-7,0,0.22499512136,0.00841622147709,53
482433000000,39599,482433000000,0,0.300000011921,-8,0,0.24060305953,0.01190896146,45
482444000000,39600,482444000000,0,0.300000011921,-7,0,0.228238940239,0.0147856706753,49
482454000000,39601,482454000000,0,0.300000011921,-8,0,0.245523989201,0.00915935076773,51
482465000000,39602,482465000000,0,0.300000011921,-7,0,0.22069786489,0.00333104236051,55
482475000000,39603,482475000000,0,0.300000011921,-7,0,0.237171441317,0.0144626582041,50
482486000000,39604,482486000000,0,0.300000011921,-7,0,0.221549898386,0.0124286860228,51
482496000000,39605,482496000000,0,0.300000011921,-8,0,0.24640032649,0.00548845995218,50
482507000000,39606,482507000000,0,0.300000011921,-8,0,0.246572911739,0.0115650175139,53
482517000000,39607,482517000000,0,0.300000011921,-7,0,0.217903986573,0.00437721516937,54
482528000000,39608,482528000000,0,0.300000011921,-8,0,0.247093588114,0.0148675236851,52
482538000000,39609,482538000000,0,0.300000011921,-7,0,0.227693557739,0.0132461171597,53
482549000000,39610,482549000000,0,0.300000011921,-8,0,0.244748532772,0.00741822645068,54
482559000000,39611,482559000000,0,0.300000011921,-7,0,0.214752912521,0.0127809485421,51
482569000000,39612,482569000000,0,0.300000011921,-8,0,0.246835589409,0.00487123895437,52
482580000000,39613,482580000000,0,0.300000011921,-8,0,0.255160957575,0.00600773841143,56
482591000000,39614,482591000000,0,0.300000011921,-7,0,0.216770023108,0.00427656108513,58
482601000000,39615,482601000000,0,0.300000011921,-7,0,0.237945348024,0.0133330142125,52
482611000000,39616,482611000000,0,0.300000011921,-7,0,0.226452991366,0.00812750123441,46
482622000000,39617,482622000000,0,0.300000011921,-8,0,0.248685240746,0.00822978839278,55
482632000000,39618,482632000000,0,0.300000011921,-7,0,0.22081027925,0.0118290092796,57
482642000000,39619,482642000000,0,0.300000011921,-8,0,0.243546098471,0.0143274478614,50
482652000000,39620,482652000000,0,0.300000011921,-7,0,0.227636009455,0.00340060726739,46
482663000000,39621,482663000000,0,0.300000011921,-8,0,0.251291155815,0.0105420900509,53
482674000000,39622,482674000000,0,0.300000011921,-8,0,0.246835529804,0.0132641503587,57
482684000000,39623,482684000000,0,0.300000011921,-7,0,0.213931322098,0.00986944977194,53
482695000000,39624,482695000000,0,0.300000011921,-8,0,0.243672907352,-0.00380221311934,52
482705000000,39625,482705000000,0,0.300000011921,-7,0,0.231520518661,0.00301786954515,58
482716000000,39626,482716000000,0,0.300000011921,-7,0,0.230515241623,0.00418132729828,55
482726000000,39627,482726000000,0,0.300000011921,-7,0,0.226590067148,0.0177799407393,51
482736000000,39628,482736000000,0,0.300000011921,-8,0,0.249910950661,0.0148201873526,53
482747000000,39629,482747000000,0,0.300000011921,-7,0,0.233802616596,0.0125441718847,54
482758000000,39630,482758000000,0,0.300000011921,-7,0,0.225018531084,0.00655493885279,53
482767000000,39631,482767000000,0,0.300000011921,-8,0,0.24255476892,0.00555935641751,49
482778000000,39632,482778000000,0,0.300000011921,-7,0,0.219768598676,0.00626754434779,48
482789000000,39633,482789000000,0,0.300000011921,-8,0,0.250891178846,0.0113941729069,53
482799000000,39634,482799000000,0,0.300000011921,-7,0,0.220360636711,0.0175297297537,56
482809000000,39635,482809000000,0,0.300000011921,-8,0,0.247959047556,0.0094884019345,51
482819000000,39636,482819000000,0,0.300000011921,-7,0,0.228123262525,0.00922033097595,47
482831000000,39637,482831000000,0,0.300000011921,-8,0,0.240040123463,-0.00435394514352,56
482841000000,39638,482841000000,0,0.300000011921,-8,0,0.242416083813,0.00476869102567,51
482852000000,39639,482852000000,0,0.300000011921,-7,0,0.225177705288,0.0061735920608,58
482861000000,39640,482861000000,0,0.300000011921,-8,0,0.253972887993,0.00930077210069,50
482872000000,39641,482872000000,0,0.300000011921,-6,0,0.200865805149,-0.00802437867969,54
482883000000,39642,482883000000,0,0.300000011921,-8,0,0.242495179176,0.0112871909514,56
482893000000,39643,482893000000,0,0.300000011921,-7,0,0.229715466499,0.00886387005448,49
482903000000,39644,482903000000,0,0.300000011921,-8,0,0.254879146814,0.00540297292173,49
482914000000,39645,482914000000,0,0.300000011921,-8,0,0.252313911915,0.00913864187896,51
482925000000,39646,482925000000,0,0.300000011921,-7,0,0.213732391596,0.000855493126437,59
482935000000,39647,482935000000,0,0.300000011921,-8,0,0.24417629838,0.0146717764437,54
482945000000,39648,482945000000,0,0.300000011921,-7,0,0.233854979277,0.00126978463959,57
482956000000,39649,482956000000,0,0.300000011921,-7,0,0.237102732062,0.00107389735058,58
482967000000,39650,482967000000,0,0.300000011921,-7,0,0.220845520496,0.0144976247102,60
482977000000,39651,482977000000,0,0.300000011921,-7,0,0.211980521679,0.000757476314902,61
482987000000,39652,482987000000,0,0.300000011921,-7,0,0.230972766876,-0.00606854679063,54
482998000000,39653,482998000000,0,0.300000011921,-7,0,0.239589601755,0.0169365871698,59
483008000000,39654,483008000000,0,0.300000011921,-8,0,0.242403298616,0.0246700495481,55
483019000000,39655,483019000000,0,0.300000011921,-7,0,0.227703362703,0.0118420533836,59
483029000000,39656,483029000000,0,0.300000011921,-8,0,0.247763901949,0.00384485372342,52
483040000000,39657,483040000000,0,0.300000011921,-7,0,0.225778847933,0.00705057755113,62
483050000000,39658,483050000000,0,0.300000011921,-8,0,0.251341342926,0.00895736087114,57
483060000000,39659,483060000000,0,0.300000011921,-7,0,0.232783436775,0.00521348789334,58
483072000000,39660,483072000000,0,0.300000011921,-8,0,0.266880869865,0.0107720578089,56
483082000000,39661,483082000000,0,0.300000011921,-7,0,0.236815318465,0.00294144591317,62
483092000000,39662,483092000000,0,0.300000011921,-7,0,0.226754903793,0.0080645494163,56
483102000000,39663,483102000000,0,0.300000011921,-8,0,0.254210203886,0.0161868389696,56
483112000000,39664,483112000000,0,0.300000011921,-8,0,0.242790460587,0.0131744462997,50
483123000000,39665,483123000000,0,0.300000011921,-8,0,0.25397837162,0.00229512224905,58
483133000000,39666,483133000000,0,0.300000011921,-7,0,0.225802958012,0.0148213962093,55
483143000000,39667,483143000000,0,0.300000011921,-7,0,0.230232089758,-0.0101607907563,48
483154000000,39668,483154000000,0,0.300000011921,-7,0,0.239114642143,0.00580449216068,55
483165000000,39669,483165000000,0,0.300000011921,-8,0,0.261529445648,0.0162712391466,56
483175000000,39670,483175000000,0,0.300000011921,-8,0,0.247221529484,0.00956287514418,55
483185000000,39671,483185000000,0,0.300000011921,-7,0,0.217821508646,0.01150043495,54
483196000000,39672,483196000000,0,0.300000011921,-8,0,0.264209061861,0.0126480478793,54
483206000000,39673,483206000000,0,0.300000011921,-7,0,0.227531760931,-0.00328487111256,53
483217000000,39674,483217000000,0,0.300000011921,-8,0,0.248646408319,0.00732439756393,55
483228000000,39675,483228000000,0,0.300000011921,-7,0,0.232753545046,0.000449845043477,49
483238000000,39676,483238000000,0,0.300000011921,-8,0,0.249655142426,0.0106061454862,61
483248000000,39677,483248000000,0,0.300000011921,-8,0,0.24945423007,0.0132367219776,60
483258000000,39678,483258000000,0,0.300000011921,-6,0,0.200594559312,-0.00249307276681,53
483269000000,39679,483269000000,0,0.300000011921,-8,0,0.24718183279,-0.00874287914485,53
483279000000,39680,483279000000,0,0.300000011921,-7,0,0.236313119531,0.00604228489101,57
483290000000,39681,483290000000,0,0.300000011921,-8,0,0.255209118128,0.00588984135538,55
483300000000,39682,483300000000,0,0.300000011921,-7,0,0.22487360239,0.0115230828524,52
483310000000,39683,483310000000,0,0.300000011921,-7,0,0.217359870672,0.0222945474088,47
483321000000,39684,483321000000,0,0.300000011921,-8,0,0.242720797658,0.00938125606626,50
483332000000,39685,483332000000,0,0.300000011921,-8,0,0.255686879158,0.00678365211934,57
483342000000,39686,483342000000,0,0.300000011921,-7,0,0.23571896553,0.0123548712581,56
483352000000,39687,483352000000,0,0.300000011921,-7,0,0.229466453195,0.00805328786373,53
483363000000,39688,483363000000,0,0.300000011921,-8,0,0.261460989714,0.0106618274003,58
483373000000,39689,483373000000,0,0.300000011921,-7,0,0.229157060385,0.00875448621809,56
483385000000,39690,483385000000,0,0.300000011921,-8,0,0.247635036707,0.00834678020328,55
483395000000,39691,483395000000,0,0.300000011921,-6,0,0.199869483709,-0.0102377962321,58
483405000000,39692,483405000000,0,0.300000011921,-8,0,0.24533829093,-0.00121052702889,60
483416000000,39693,483416000000,0,0.300000011921,-8,0,0.254605293274,0.00799035280943,59
483426000000,39694,483426000000,0,0.300000011921,-7,0,0.224581211805,0.00980112981051,58
483436000000,39695,483436000000,0,0.300000011921,-8,0,0.255507558584,0.00657626008615,52
483447000000,39696,483447000000,0,0.300000011921,-7,0,0.234603077173,0.0057402709499,58
483457000000,39697,483457000000,0,0.300000011921,-8,0,0.25293341279,0.00679670600221,58
483468000000,39698,483468000000,0,0.300000011921,-7,0,0.218104481697,0.00519193569198,61
483477000000,39699,483477000000,0,0.300000011921,-8,0,0.257536351681,0.0134579334408,50
483488000000,39700,483488000000,0,0.300000011921,-8,0,0.257764935493,0.00694892881438,57
483499000000,39701,483499000000,0,0.300000011921,-7,0,0.2346791327,0.0107077127323,59
483509000000,39702,483509000000,0,0.300000011921,-8,0,0.241289705038,0.0151336174458,57
483519000000,39703,483519000000,0,0.300000011921,-7,0,0.219363257289,0.000612352509052,56
483530000000,39704,483530000000,0,0.300000011921,-8,0,0.261673182249,0.00465974025428,53
483542000000,39705,483542000000,0,0.300000011921,-7,0,0.231411114335,0.012800803408,61
483552000000,39706,483552000000,0,0.300000011921,-8,0,0.241155058146,0.00939045660198,56
483561000000,39707,483561000000,0,0.300000011921,-7,0,0.227925762534,0.00797508098185,54
483572000000,39708,483572000000,0,0.300000011921,-8,0,0.254966944456,0.00878965854645,57
483582000000,39709,483582000000,0,0.300000011921,-8,0,0.248359143734,0.0100699029863,58
483593000000,39710,483593000000,0,0.300000011921,-7,0,0.219932615757,0.0130187701434,63
483603000000,39711,483603000000,0,0.300000011921,-8,0,0.248368710279,0.0108269127086,57
483614000000,39712,483614000000,0,0.300000011921,-7,0,0.239951223135,0.0106528149918,59
483624000000,39713,483624000000,0,0.300000011921,-8,0,0.252666980028,0.00779467402026,54
483635000000,39714,483635000000,0,0.300000011921,-7,0,0.221571698785,0.0138007607311,60
483644000000,39715,483644000000,0,0.300000011921,-8,0,0.253554105759,0.00636713160202,50
483655000000,39716,483655000000,0,0.300000011921,-8,0,0.254657685757,0.00918984971941,58
483666000000,39717,483666000000,0,0.300000011921,-7,0,0.232638061047,0.00675792759284,60
483676000000,39718,483676000000,0,0.300000011921,-8,0,0.244304090738,0.011472648941,56
483687000000,39719,483687000000,0,0.300000011921,-7,0,0.228474527597,0.00407094368711,60
483699000000,39720,483699000000,0,0.300000011921,-8,0,0.251760005951,0.00675127469003,60
483708000000,39721,483708000000,0,0.300000011921,-7,0,0.230060279369,0.0105030527338,54
483718000000,39722,483718000000,0,0.300000011921,-8,0,0.240422695875,0.0138635206968,56
483728000000,39723,483728000000,0,0.300000011921,-7,0,0.228420734406,0.0056599653326,58
483739000000,39724,483739000000,0,0.300000011921,-8,0,0.25823622942,0.00621351925656,59
483749000000,39725,483749000000,0,0.300000011921,-8,0,0.244721800089,0.0137040652335,57
483759000000,39726,483759000000,0,0.300000011921,-7,0,0.224736571312,0.0103815998882,56
483770000000,39727,483770000000,0,0.300000011921,-8,0,0.247283190489,0.00357103790157,53
483781000000,39728,483781000000,0,0.300000011921,-7,0,0.23513007164,0.00970778241754,61
483791000000,39729,483791000000,0,0.300000011921,-8,0,0.243497133255,0.00677162362263,63
483801000000,39730,483801000000,0,0.300000011921,-7,0,0.218401774764,0.00619256775826,51
483811000000,39731,483811000000,0,0.300000011921,-8,0,0.254093676805,0.0054049724713,52
483822000000,39732,483822000000,0,0.300000011921,-8,0,0.249787569046,0.00383657542989,56
483833000000,39733,483833000000,0,0.300000011921,-7,0,0.22666208446,0.011292597279,59
483843000000,39734,483843000000,0,0.300000011921,-8,0,0.244145005941,0.0069926166907,55
483854000000,39735,483854000000,0,0.300000011921,-7,0,0.229627251625,0.0105724846944,57
483864000000,39736,483864000000,0,0.300000011921,-8,0,0.251484334469,0.0042538009584,55
483875000000,39737,483875000000,0,0.300000011921,-7,0,0.232384651899,0.0065611358732,60
483884000000,39738,483884000000,0,0.300000011921,-8,0,0.244958281517,0.0071007553488,53
483895000000,39739,483895000000,0,0.300000011921,-7,0,0.232184886932,0.00570331513882,52
483906000000,39740,483906000000,0,0.300000011921,-8,0,0.255902975798,0.00622053444386,57
483916000000,39741,483916000000,0,0.300000011921,-8,0,0.244471728802,0.00977826304734,59
483926000000,39742,483926000000,0,0.300000011921,-7,0,0.21977609396,0.0171513967216,55
483937000000,39743,483937000000,0,0.300000011921,-8,0,0.245681270957,0.00182084715925,52
483947000000,39744,483947000000,0,0.300000011921,-7,0,0.226684778929,0.0107479803264,54
483958000000,39745,483958000000,0,0.300000011921,-8,0,0.24837782979,0.00740702450275,53
483968000000,39746,483968000000,0,0.300000011921,-7,0,0.21752461791,0.0090295933187,49
483978000000,39747,483978000000,0,0.300000011921,-8,0,0.252127408981,0.0011124573648,50
483989000000,39748,483989000000,0,0.300000011921,-8,0,0.256694614887,0.014660933055,56
483999000000,39749,483999000000,0,0.300000011921,-7,0,0.225499808788,0.0123375747353,53
484010000000,39750,484010000000,0,0.300000011921,-8,0,0.251680016518,0.0134852444753,49
484020000000,39751,484020000000,0,0.300000011921,-7,0,0.233661487699,0.00460079498589,50
484031000000,39752,484031000000,0,0.300000011921,-8,0,0.256063222885,0.00619586696848,52
484041000000,39753,484041000000,0,0.300000011921,-7,0,0.228684008121,0.00737655349076,57
484052000000,39754,484052000000,0,0.300000011921,-8,0,0.253603845835,0.0150301801041,60
484062000000,39755,484062000000,0,0.300000011921,-7,0,0.237313687801,0.010486443527,54
484073000000,39756,484073000000,0,0.300000011921,-8,0,0.261093556881,0.00569617701694,56
484083000000,39757,484083000000,0,0.300000011921,-8,0,0.244827896357,0.0161279346794,59
484094000000,39758,484094000000,0,0.300000011921,-7,0,0.230407238007,0.0122426692396,58
484104000000,39759,484104000000,0,0.300000011921,-8,0,0.256544470787,0.00441068736836,58
484114000000,39760,484114000000,0,0.300000011921,-8,0,0.258082300425,0.00450559286401,55
484124000000,39761,484124000000,0,0.300000011921,-8,0,0.252788037062,0.0131891984493,52
484135000000,39762,484135000000,0,0.300000011921,-7,0,0.226237267256,0.0157636143267,51
484145000000,39763,484145000000,0,0.300000011921,-8,0,0.258982807398,0.00844469666481,53
484156000000,39764,484156000000,0,0.300000011921,-8,0,0.250659108162,0.00747519172728,57
484168000000,39765,484168000000,0,0.300000011921,-7,0,0.215511649847,-0.0034415810369,58
484177000000,39766,484177000000,0,0.300000011921,-7,1,0.224817037582,-0.0357666164637,52
484187000000,39767,484187000000,0,0.300000011921,-7,0,0.228692531586,-0.0168114304543,53
484199000000,39768,484199000000,0,0.300000011921,-8,0,0.246190309525,0.00885097868741,62
484209000000,39769,484209000000,0,0.300000011921,-7,0,0.22632651031,0.019519964233,64
484219000000,39770,484219000000,0,0.300000011921,-8,0,0.244727507234,-0.00382416020148,57
484230000000,39771,484230000000,0,0.300000011921,-5,0,0.176553189754,-0.0115812858567,61
484240000000,39772,484240000000,0,0.300000011921,-8,0,0.246564537287,0.00409606285393,61
484250000000,39773,484250000000,0,0.300000011921,-8,0,0.250619351864,0.0118981935084,61
484261000000,39774,484261000000,0,0.300000011921,-7,0,0.228891894221,0.0213774293661,59
484271000000,39775,484271000000,0,0.300000011921,-8,0,0.245180621743,-0.00596488034353,60
484282000000,39776,484282000000,0,0.300000011921,-7,0,0.232381612062,0.00951620656997,63
484292000000,39777,484292000000,0,0.300000011921,-8,0,0.258412390947,0.00586575921625,63
484303000000,39778,484303000000,0,0.300000011921,-7,0,0.236364379525,0.011228502728,60
484313000000,39779,484313000000,0,0.300000011921,-6,0,0.181319996715,-0.0247857216746,63
484326000000,39780,484326000000,0,0.300000011921,-8,0,0.252411067486,0.0166871510446,64
484337000000,39781,484337000000,0,0.300000011921,-7,0,0.230466902256,-0.00855570472777,64
484347000000,39782,484347000000,0,0.300000011921,-6,0,0.201326161623,0.00670293066651,62
484358000000,39783,484358000000,0,0.300000011921,-7,0,0.229813754559,0.0186110623181,63
484368000000,39784,484368000000,0,0.300000011921,-8,0,0.24885828793,0.00907577201724,62
484379000000,39785,484379000000,0,0.300000011921,-7,0,0.237118333578,0.00439640507102,64
484389000000,39786,484389000000,0,0.300000011921,-8,0,0.255882263184,0.00733906775713,59
484400000000,39787,484400000000,0,0.300000011921,-8,0,0.242083191872,-0.0179988145828,62
484409000000,39788,484409000000,0,0.300000011921,-7,0,0.222877502441,0.0177183821797,60
484420000000,39789,484420000000,0,0.300000011921,-8,0,0.248151570559,0.0102446172386,63
484429000000,39790,484429000000,0,0.300000011921,-6,-1,0.180655151606,0.0384559072554,57
484439000000,39791,484439000000,0,0.300000011921,-8,0,0.257072269917,-0.00622043944895,61
484449000000,39792,484449000000,0,0.300000011921,-6,0,0.197143405676,-0.00464860210195,62
484459000000,39793,484459000000,0,0.300000011921,-7,0,0.216982424259,0.0161261856556,57
484469000000,39794,484469000000,0,0.300000011921,-7,0,0.224177569151,0.0115041341633,59
484482000000,39795,484482000000,0,0.300000011921,-8,0,0.252943068743,0.00246416917071,58
484492000000,39796,484492000000,0,0.300000011921,-8,0,0.266896814108,0.0211616214365,59
484501000000,39797,484501000000,0,0.300000011921,-8,0,0.241552844644,0.022488925606,59
484511000000,39798,484511000000,0,0.300000011921,-8,0,0.249359130859,0.0263673700392,57
484522000000,39799,484522000000,0,0.300000011921,-8,0,0.244533479214,0.00655177328736,60
484532000000,39800,484532000000,0,0.300000011921,-8,0,0.266615569592,0.0138839967549,64
484542000000,39801,484542000000,0,0.300000011921,-8,0,0.249350428581,0.0108406785876,56
484553000000,39802,484553000000,0,0.300000011921,-8,0,0.267905473709,0.00984767451882,55
484563000000,39803,484563000000,0,0.300000011921,-8,0,0.252431035042,0.00934147275984,59
484574000000,39804,484574000000,0,0.300000011921,-8,0,0.267781585455,0.00591407949105,59
484584000000,39805,484584000000,0,0.300000011921,-9,0,0.28197145462,0.0245761349797,56
484594000000,39806,484594000000,0,0.300000011921,-8,0,0.256417661905,0.0123336678371,55
484605000000,39807,484605000000,0,0.300000011921,-9,0,0.279881805182,0.00512952357531,56
484616000000,39808,484616000000,0,0.300000011921,-8,0,0.242707952857,0.00462330970913,60
484626000000,39809,484626000000,0,0.300000011921,-9,0,0.291280031204,0.0192132275552,59
484638000000,39810,484638000000,0,0.300000011921,-8,0,0.253822565079,0.0126137714833,59
484648000000,39811,484648000000,0,0.300000011921,-9,0,0.281676828861,0.0156705975533,57
484658000000,39812,484658000000,0,0.300000011921,-9,0,0.275402724743,0.00762197375298,61
484668000000,39813,484668000000,0,0.300000011921,-8,0,0.2604560256,0.0141574442387,57
484678000000,39814,484678000000,0,0.300000011921,-9,0,0.282905101776,0.0118075711653,54
484689000000,39815,484689000000,0,0.300000011921,-8,0,0.25532579422,0.0116277234629,60
484699000000,39816,484699000000,0,0.300000011921,-9,0,0.283694863319,0.0146743953228,57
484709000000,39817,484709000000,0,0.300000011921,-8,0,0.264098763466,0.00771784689277,56
484720000000,39818,484720000000,0,0.300000011921,-9,0,0.287690281868,0.0121832080185,57
484731000000,39819,484731000000,0,0.300000011921,-8,0,0.248351931572,0.00285032275133,62
484741000000,39820,484741000000,0,0.300000011921,-9,0,0.29191249609,0.0191848408431,60
484752000000,39821,484752000000,0,0.300000011921,-9,0,0.291639924049,0.0148844411597,64
484762000000,39822,484762000000,0,0.300000011921,-8,0,0.257041394711,0.0081678936258,63
484773000000,39823,484773000000,0,0.300000011921,-8,0,0.262233138084,-0.00204874575138,64
484783000000,39824,484783000000,0,0.300000011921,-8,0,0.267999917269,0.00776059925556,63
484796000000,39825,484796000000,0,0.300000011921,-9,0,0.29762417078,0.0107388924807,63
484806000000,39826,484806000000,0,0.300000011921,-8,0,0.263785362244,0.0104001443833,61
484817000000,39827,484817000000,0,0.300000011921,-9,0,0.289014697075,0.00738351047039,60
484827000000,39828,484827000000,0,0.300000011921,-9,0,0.287158727646,0.0122115481645,59
484837000000,39829,484837000000,0,0.300000011921,-8,0,0.263178616762,0.00989828258753,63
484846000000,39830,484846000000,0,0.300000011921,-9,0,0.284010350704,0.00888226460665,59
484856000000,39831,484856000000,0,0.300000011921,-8,0,0.258125752211,0.00898383185267,60
484866000000,39832,484866000000,0,0.300000011921,-9,0,0.292128264904,0.0202509760857,58
484877000000,39833,484877000000,0,0.300000011921,-8,0,0.266877889633,0.0183530915529,60
484887000000,39834,484887000000,0,0.300000011921,-9,0,0.283665418625,0.0154987871647,58
484897000000,39835,484897000000,0,0.300000011921,-9,0,0.277250945568,0.00264845299534,60
484908000000,39836,484908000000,0,0.300000011921,-8,0,0.250023454428,0.0062492704019,64
484918000000,39837,484918000000,0,0.300000011921,-9,0,0.296328425407,0.0153821371496,62
484928000000,39838,484928000000,0,0.300000011921,-8,0,0.261326134205,0.0171223171055,54
484939000000,39839,484939000000,0,0.300000011921,-9,0,0.281797140837,0.00981148704886,56
484951000000,39840,484951000000,0,0.300000011921,-8,0,0.263790458441,0.0113795856014,62
484960000000,39841,484960000000,0,0.300000011921,-9,0,0.297146618366,0.0218627415597,56
484970000000,39842,484970000000,0,0.300000011921,-8,0,0.263799458742,0.00844117067754,54
484981000000,39843,484981000000,0,0.300000011921,-9,0,0.290152013302,0.0103692719713,59
484991000000,39844,484991000000,0,0.300000011921,-9,0,0.290674269199,0.0113198114559,61
485001000000,39845,485001000000,0,0.300000011921,-9,0,0.270123422146,0.0184968262911,53
485012000000,39846,485012000000,0,0.300000011921,-9,0,0.285323560238,0.0167242623866,53
485022000000,39847,485022000000,0,0.300000011921,-8,0,0.266938924789,0.00876078102738,55
485033000000,39848,485033000000,0,0.300000011921,-9,0,0.285345673561,0.0108153065667,56
485043000000,39849,485043000000,0,0.300000011921,-9,0,0.271836161613,0.0132068404928,58
485053000000,39850,485053000000,0,0.300000011921,-9,0,0.284102618694,0.0118158692494,50
485064000000,39851,485064000000,0,0.300000011921,-9,0,0.283855497837,0.0178247336298,57
485075000000,39852,485075000000,0,0.300000011921,-8,0,0.250926524401,0.0178182981908,58
485085000000,39853,485085000000,0,0.300000011921,-9,0,0.287439227104,0.0174415651709,51
485095000000,39854,485095000000,0,0.300000011921,-8,0,0.247199505568,-0.0012876521796,56
485107000000,39855,485107000000,0,0.300000011921,-9,0,0.283288270235,0.00709481537342,59
485116000000,39856,485116000000,0,0.300000011921,-8,0,0.26449906826,0.0188282243907,55
485127000000,39857,485127000000,0,0.300000011921,-9,0,0.275882154703,0.0298777855933,55
485138000000,39858,485138000000,0,0.300000011921,-8,0,0.255535006523,0.0115422047675,55
485148000000,39859,485148000000,0,0.300000011921,-9,0,0.279521614313,0.00755789829418,55
485158000000,39860,485158000000,0,0.300000011921,-9,0,0.27216348052,0.00951002165675,55
485168000000,39861,485168000000,0,0.300000011921,-8,0,0.254083007574,0.0130356401205,54
485179000000,39862,485179000000,0,0.300000011921,-9,0,0.274273633957,0.0108229396865,55
485189000000,39863,485189000000,0,0.300000011921,-8,0,0.253462672234,0.010471641086,52
485200000000,39864,485200000000,0,0.300000011921,-8,0,0.269836008549,0.01738075912,54
485210000000,39865,485210000000,0,0.300000011921,-8,0,0.247912764549,0.0179146323353,54
485221000000,39866,485221000000,0,0.300000011921,-8,0,0.264623105526,0.00448734825477,58
485231000000,39867,485231000000,0,0.300000011921,-9,0,0.271489113569,0.00742048909888,55
485241000000,39868,485241000000,0,0.300000011921,-8,0,0.240793377161,0.00375317432918,54
485252000000,39869,485252000000,0,0.300000011921,-8,0,0.260549783707,0.0155137218535,52
485263000000,39870,485263000000,0,0.300000011921,-7,0,0.237399578094,0.0117869405076,50
485273000000,39871,485273000000,0,0.300000011921,-7,0,0.226530224085,-0.0109237292781,57
485284000000,39872,485284000000,0,0.300000011921,-7,0,0.234061092138,0.00512011628598,61
485294000000,39873,485294000000,0,0.300000011921,-8,0,0.257634937763,0.0032793211285,56
485304000000,39874,485304000000,0,0.300000011921,-8,0,0.242647498846,0.00816058367491,50
485314000000,39875,485314000000,0,0.300000011921,-8,0,0.267890036106,0.00835675187409,51
485325000000,39876,485325000000,0,0.300000011921,-8,0,0.254314541817,0.00954743567854,56
485335000000,39877,485335000000,0,0.300000011921,-7,0,0.238391876221,0.0138407824561,53
485345000000,39878,485345000000,0,0.300000011921,-8,0,0.260685265064,0.00552617758512,50
485357000000,39879,485357000000,0,0.300000011921,-8,0,0.240456700325,0.00843628682196,59
485367000000,39880,485367000000,0,0.300000011921,-8,0,0.255799800158,0.0136562455446,55
485377000000,39881,485377000000,0,0.300000011921,-8,0,0.245034992695,0.00967431627214,53
485387000000,39882,485387000000,0,0.300000011921,-8,0,0.258496969938,0.00984147749841,50
485398000000,39883,485398000000,0,0.300000011921,-8,0,0.266889929771,0.0140811093152,59
485409000000,39884,485409000000,0,0.300000011921,-7,0,0.237191140652,0.0143780596554,60
485420000000,39885,485420000000,0,0.300000011921,-8,0,0.257204830647,0.00648423144594,53
485430000000,39886,485430000000,0,0.300000011921,-5,1,0.153754860163,-0.0347091443837,59
485440000000,39887,485440000000,0,0.300000011921,-7,0,0.222591355443,-0.0123257823288,60
485451000000,39888,485451000000,0,0.300000011921,-7,0,0.230464011431,0.00523181632161,61
485461000000,39889,485461000000,0,0.300000011921,-8,0,0.254230290651,0.0150437951088,54
485471000000,39890,485471000000,0,0.300000011921,-7,0,0.23256957531,0.00184353312943,56
485481000000,39891,485481000000,0,0.300000011921,-8,0,0.256992399693,0.0140172466636,54
485492000000,39892,485492000000,0,0.300000011921,-8,0,0.24550896883,0.00560968928039,60
485503000000,39893,485503000000,0,0.300000011921,-7,0,0.230881512165,0.0158263072371,59
485513000000,39894,485513000000,0,0.300000011921,-7,0,0.224129110575,-0.01308773458,58
485524000000,39895,485524000000,0,0.300000011921,-7,0,0.236825302243,0.0059283724986,59
485534000000,39896,485534000000,0,0.300000011921,-6,0,0.202745229006,-0.00900539942086,55
485544000000,39897,485544000000,0,0.300000011921,-7,0,0.22642403841,0.00990078784525,53
485555000000,39898,485555000000,0,0.300000011921,-8,0,0.245216697454,0.00502296863124,55
485565000000,39899,485565000000,0,0.300000011921,-7,0,0.236900925636,0.0191972590983,58
485577000000,39900,485577000000,0,0.300000011921,-7,0,0.219589397311,0.00935031473637,60
485587000000,39901,485587000000,0,0.300000011921,-8,0,0.244207724929,0.0124760288745,56
485597000000,39902,485597000000,0,0.300000011921,-7,0,0.22609847784,0.00343741895631,58
485607000000,39903,485607000000,0,0.300000011921,-8,0,0.253310918808,0.0133615229279,59
485618000000,39904,485618000000,0,0.300000011921,-7,0,0.219111770391,0.0127641633153,62
485628000000,39905,485628000000,0,0.300000011921,-7,0,0.22097492218,0.00193528598174,61
485638000000,39906,485638000000,0,0.300000011921,-7,0,0.229238659143,0.00553023116663,58
485649000000,39907,485649000000,0,0.300000011921,-7,0,0.238264083862,0.00465692812577,62
485659000000,39908,485659000000,0,0.300000011921,-8,0,0.243989437819,0.00575326755643,62
485670000000,39909,485670000000,0,0.300000011921,-7,0,0.223506107926,0.0120824743062,57
485680000000,39910,485680000000,0,0.300000011921,-8,0,0.241091400385,0.00191835989244,57
485691000000,39911,485691000000,0,0.300000011921,-7,0,0.226289689541,0.0104793952778,63
485701000000,39912,485701000000,0,0.300000011921,-6,0,0.200683638453,-0.00381482671946,63
485711000000,39913,485711000000,0,0.300000011921,-6,0,0.209107264876,-0.00123738357797,57
485722000000,39914,485722000000,0,0.300000011921,-7,0,0.238444909453,0.0122609119862,62
485734000000,39915,485734000000,0,0.300000011921,-8,0,0.244843572378,0.00630261702463,58
485744000000,39916,485744000000,0,0.300000011921,-7,0,0.224284410477,0.00357099762186,61
485755000000,39917,485755000000,0,0.300000011921,-8,0,0.243360832334,0.0108473673463,62
485765000000,39918,485765000000,0,0.300000011921,-7,0,0.237182199955,0.0184019375592,63
485775000000,39919,485775000000,0,0.300000011921,-8,0,0.244518429041,0.000262198736891,58
485785000000,39920,485785000000,0,0.300000011921,-7,0,0.217796057463,0.0239966269583,61
485795000000,39921,485795000000,0,0.300000011921,-7,0,0.227657943964,0.0157164260745,61
485805000000,39922,485805000000,0,0.300000011921,-7,0,0.227357000113,-0.0116631453857,60
485816000000,39923,485816000000,0,0.300000011921,-8,0,0.24859598279,0.00756556075066,58
485826000000,39924,485826000000,0,0.300000011921,-7,0,0.238624721766,0.00631616078317,58
485836000000,39925,485836000000,0,0.300000011921,-7,0,0.222337350249,0.0090613393113,56
485847000000,39926,485847000000,0,0.300000011921,-7,0,0.238736629486,0.00718149961904,57
485857000000,39927,485857000000,0,0.300000011921,-7,0,0.226156979799,0.00651865359396,58
485868000000,39928,485868000000,0,0.300000011921,-7,0,0.230285808444,0.00467641791329,59
485879000000,39929,485879000000,0,0.300000011921,-7,0,0.212903991342,-0.00426035560668,62
485891000000,39930,485891000000,0,0.300000011921,-8,0,0.245156317949,0.00784489326179,59
485901000000,39931,485901000000,0,0.300000011921,-8,0,0.24665299058,0.00553747313097,63
485911000000,39932,485911000000,0,0.300000011921,-7,0,0.221004873514,0.00858794152737,60
485923000000,39933,485923000000,0,0.300000011921,-7,0,0.235888123512,-0.0123689435422,63
485933000000,39934,485933000000,0,0.300000011921,-7,0,0.228261739016,-0.00346706155688,61
485943000000,39935,485943000000,0,0.300000011921,-8,0,0.252513706684,0.00353885698132,62
485953000000,39936,485953000000,0,0.300000011921,-7,0,0.218889355659,-0.000339002115652,63
485964000000,39937,485964000000,0,0.300000011921,-7,0,0.225917235017,0.0209488421679,60
485974000000,39938,485974000000,0,0.300000011921,-6,0,0.1996563375,-0.0171504877508,62
485984000000,39939,485984000000,0,0.300000011921,-8,0,0.24823820591,0.00249903649092,64
485994000000,39940,485994000000,0,0.300000011921,-8,0,0.242382764816,0.00653834920377,59
