%time,field.header.seq,field.header.stamp,field.header.frame_id,field.ground_distance,field.flow_x,field.flow_y,field.velocity_x,field.velocity_y,field.quality
520169000000,36290,520169000000,0,0.300000011921,-11,0,0.356346100569,-0.000503116112668,47
520179000000,36291,520179000000,0,0.300000011921,-11,0,0.356748282909,0.00179964164272,45
520188000000,36292,520188000000,0,0.300000011921,-11,0,0.35145252943,0.00329558830708,34
520199000000,36293,520199000000,0,0.300000011921,-10,0,0.311832368374,-0.00229103863239,35
520210000000,36294,520210000000,0,0.300000011921,-12,0,0.381918072701,0.00317857041955,46
520220000000,36295,520220000000,0,0.300000011921,-11,0,0.345172405243,0.00229331222363,44
520231000000,36296,520231000000,0,0.300000011921,-11,0,0.350457549095,0.00507646705955,40
520241000000,36297,520241000000,0,0.300000011921,-10,0,0.317040085793,-0.00239648297429,40
520252000000,36298,520252000000,0,0.300000011921,-12,0,0.36993086338,-0.0060222260654,43
520262000000,36299,520262000000,0,0.300000011921,-10,0,0.319592803717,0.00114284513984,42
520272000000,36300,520272000000,0,0.300000011921,-11,0,0.341821342707,-0.0054167592898,29
520283000000,36301,520283000000,0,0.300000011921,-11,0,0.342745870352,0.00388986291364,40
520293000000,36302,520293000000,0,0.300000011921,-11,0,0.34121593833,-0.000159733346663,41
520304000000,36303,520304000000,0,0.300000011921,-11,0,0.353771269321,-0.00218974472955,46
520314000000,36304,520314000000,0,0.300000011921,-10,0,0.302122354507,0.00680861249566,41
520325000000,36305,520325000000,0,0.300000011921,-11,0,0.332119524479,0.00455600488931,41
520335000000,36306,520335000000,0,0.300000011921,-11,0,0.342626273632,-0.000463091157144,45
520346000000,36307,520346000000,0,0.300000011921,-11,0,0.35112670064,-0.0018626099918,48
520355000000,36308,520355000000,0,0.300000011921,-11,0,0.334469735622,0.00474049942568,25
520366000000,36309,520366000000,0,0.300000011921,-10,0,0.310371398926,-0.00143436877988,36
520377000000,36310,520377000000,0,0.300000011921,-12,0,0.364517688751,-0.00638369983062,47
520387000000,36311,520387000000,0,0.300000011921,-10,0,0.325236916542,-8.90496885404e-05,41
520397000000,36312,520397000000,0,0.300000011921,-11,0,0.338605523109,0.00619368394837,32
520408000000,36313,520408000000,0,0.300000011921,-10,0,0.306339234114,-0.00166188611183,37
520419000000,36314,520419000000,0,0.300000011921,-12,0,0.375783979893,0.00434203539044,46
520429000000,36315,520429000000,0,0.300000011921,-10,0,0.32070094347,-0.00160823436454,42
520439000000,36316,520439000000,0,0.300000011921,-11,0,0.344944387674,0.000732894113753,30
520449000000,36317,520449000000,0,0.300000011921,-11,0,0.340332657099,0.00160461105406,29
520461000000,36318,520461000000,0,0.300000011921,-11,0,0.337702155113,0.00379546405748,45
520470000000,36319,520470000000,0,0.300000011921,-11,0,0.358430624008,0.00328424479812,35
520480000000,36320,520480000000,0,0.300000011921,-10,0,0.325276255608,-0.0027488830965,27
520492000000,36321,520492000000,0,0.300000011921,-11,0,0.357843339443,0.00119622529019,37
520502000000,36322,520502000000,0,0.300000011921,-11,0,0.335009217262,0.000543870963156,40
520512000000,36323,520512000000,0,0.300000011921,-12,0,0.364412903786,0.00133564928547,32
520522000000,36324,520522000000,0,0.300000011921,-11,0,0.353973180056,0.00170306966174,27
520533000000,36325,520533000000,0,0.300000011921,-11,0,0.337543725967,3.49449364876e-05,39
520544000000,36326,520544000000,0,0.300000011921,-12,0,0.372706145048,-0.00394282722846,45
520554000000,36327,520554000000,0,0.300000011921,-11,0,0.338672369719,0.00295231072232,37
520565000000,36328,520565000000,0,0.300000011921,-11,0,0.332507193089,-0.00487173395231,41
520575000000,36329,520575000000,0,0.300000011921,-11,0,0.33477216959,-0.000607241876423,35
520585000000,36330,520585000000,0,0.300000011921,-12,0,0.37786501646,-0.00165988691151,38
520596000000,36331,520596000000,0,0.300000011921,-11,0,0.337930470705,0.0025072474964,35
520606000000,36332,520606000000,0,0.300000011921,-12,0,0.367869615555,-0.00229641562328,29
520617000000,36333,520617000000,0,0.300000011921,-12,0,0.369502127171,0.000449249753729,41
520628000000,36334,520628000000,0,0.300000011921,-11,0,0.346898883581,0.00448700692505,47
520637000000,36335,520637000000,0,0.300000011921,-12,0,0.369414329529,-0.000719623698387,35
520647000000,36336,520647000000,0,0.300000011921,-10,0,0.326729118824,0.000435643829405,30
520658000000,36337,520658000000,0,0.300000011921,-12,0,0.373857676983,-0.00193055428099,34
520670000000,36338,520670000000,0,0.300000011921,-11,0,0.337809145451,0.00794397853315,50
520679000000,36339,520679000000,0,0.300000011921,-11,0,0.359800934792,0.000352267175913,38
520690000000,36340,520690000000,0,0.300000011921,-11,0,0.348082572222,0.00539454445243,37
520700000000,36341,520700000000,0,0.300000011921,-11,0,0.339940667152,0.00369383161888,42
520711000000,36342,520711000000,0,0.300000011921,-12,0,0.370659291744,-0.000630234309938,42
520721000000,36343,520721000000,0,0.300000011921,-11,0,0.332752168179,0.00465675443411,40
520731000000,36344,520731000000,0,0.300000011921,-11,0,0.349189847708,0.00988258328289,31
520742000000,36345,520742000000,0,0.300000011921,-11,0,0.349017798901,0.0030480180867,39
520752000000,36346,520752000000,0,0.300000011921,-12,0,0.372688531876,0.0178301036358,39
520763000000,36347,520763000000,0,0.300000011921,-10,0,0.329154551029,0.00136674428359,37
520772000000,36348,520772000000,0,0.300000011921,-11,0,0.352190434933,8.72313137279e-07,26
520784000000,36349,520784000000,0,0.300000011921,-12,0,0.387736320496,6.41034566797e-05,39
520795000000,36350,520795000000,0,0.300000011921,-11,0,0.333175420761,0.00567391514778,44
520804000000,36351,520804000000,0,0.300000011921,-12,0,0.362910866737,-0.00481341592968,33
520815000000,36352,520815000000,0,0.300000011921,-11,0,0.332792162895,0.00466378871351,35
520825000000,36353,520825000000,0,0.300000011921,-12,0,0.382536053658,-0.00524883996695,37
520836000000,36354,520836000000,0,0.300000011921,-11,0,0.343103826046,0.00327246985398,46
520846000000,36355,520846000000,0,0.300000011921,-12,0,0.36598867178,-0.00368814868852,41
520856000000,36356,520856000000,0,0.300000011921,-11,0,0.349629223347,0.00119133852422,29
520868000000,36357,520868000000,0,0.300000011921,-11,0,0.353744149208,0.000508416153025,43
520878000000,36358,520878000000,0,0.300000011921,-12,0,0.376786351204,-0.00411559548229,46
520888000000,36359,520888000000,0,0.300000011921,-10,0,0.32855373621,0.00159265752882,35
520898000000,36360,520898000000,0,0.300000011921,-11,0,0.35417675972,0.00596654275432,37
520909000000,36361,520909000000,0,0.300000011921,-11,0,0.356899499893,0.000996835413389,42
520920000000,36362,520920000000,0,0.300000011921,-11,0,0.346851170063,0.000706944265403,51
520930000000,36363,520930000000,0,0.300000011921,-10,0,0.329887211323,0.00928068347275,43
520940000000,36364,520940000000,0,0.300000011921,-11,0,0.342590421438,0.0116841169074,35
520951000000,36365,520951000000,0,0.300000011921,-12,0,0.385474860668,-0.000794052495621,47
520962000000,36366,520962000000,0,0.300000011921,-11,0,0.347529441118,-0.0039280205965,51
520972000000,36367,520972000000,0,0.300000011921,-12,0,0.371050357819,0.00955999828875,40
520982000000,36368,520982000000,0,0.300000011921,-10,0,0.323564767838,-0.000843751709908,35
520993000000,36369,520993000000,0,0.300000011921,-12,0,0.387996941805,-0.00152900582179,50
521003000000,36370,521003000000,0,0.300000011921,-11,0,0.333211779594,-0.00319541618228,46
521014000000,36371,521014000000,0,0.300000011921,-12,0,0.373976230621,-0.00305884703994,46
521024000000,36372,521024000000,0,0.300000011921,-11,0,0.35256677866,-0.00112057186197,39
521035000000,36373,521035000000,0,0.300000011921,-11,0,0.354700922966,-0.00264497706667,45
521045000000,36374,521045000000,0,0.300000011921,-13,0,0.390615224838,0.000652701302897,50
521055000000,36375,521055000000,0,0.300000011921,-10,0,0.325676202774,-0.00357626844198,44
521065000000,36376,521065000000,0,0.300000011921,-10,0,0.316661894321,0.00215716706589,33
521076000000,36377,521076000000,0,0.300000011921,-11,0,0.358614116907,-0.00174904195592,36
521087000000,36378,521087000000,0,0.300000011921,-11,0,0.341759443283,0.00677508721128,48
521097000000,36379,521097000000,0,0.300000011921,-10,0,0.327128231525,0.011652180925,38
521107000000,36380,521107000000,0,0.300000011921,-11,0,0.337022900581,0.00183287868276,36
521118000000,36381,521118000000,0,0.300000011921,-12,0,0.37689357996,0.00586321670562,46
521129000000,36382,521129000000,0,0.300000011921,-11,0,0.352440327406,-0.000759659742471,47
521139000000,36383,521139000000,0,0.300000011921,-12,0,0.364631474018,0.0100477579981,39
521149000000,36384,521149000000,0,0.300000011921,-11,0,0.333432435989,-0.00280172936618,33
521159000000,36385,521159000000,0,0.300000011921,-13,0,0.392708569765,7.6751166489e-05,38
521170000000,36386,521170000000,0,0.300000011921,-12,0,0.361637979746,-0.00115688319784,43
521180000000,36387,521180000000,0,0.300000011921,-12,0,0.385989189148,0.00634129438549,36
521190000000,36388,521190000000,0,0.300000011921,-12,0,0.371143370867,-0.00361344241537,30
521202000000,36389,521202000000,0,0.300000011921,-12,0,0.361643731594,0.00167977961246,44
521212000000,36390,521212000000,0,0.300000011921,-13,0,0.402273386717,0.00172702595592,42
521222000000,36391,521222000000,0,0.300000011921,-11,0,0.354046046734,0.00258379010484,33
521232000000,36392,521232000000,0,0.300000011921,-12,0,0.364541351795,0.00246374937706,31
521244000000,36393,521244000000,0,0.300000011921,-11,0,0.358183830976,-0.00152642931789,48
521254000000,36394,521254000000,0,0.300000011921,-13,0,0.399236947298,0.00572403520346,52
521265000000,36395,521265000000,0,0.300000011921,-11,0,0.34214425087,0.00292652798817,45
521275000000,36396,521275000000,0,0.300000011921,-12,0,0.377295345068,-0.00903529766947,41
521286000000,36397,521286000000,0,0.300000011921,-12,0,0.379966020584,-0.0020614983514,50
521295000000,36398,521295000000,0,0.300000011921,-12,0,0.364055216312,0.00528481649235,37
521305000000,36399,521305000000,0,0.300000011921,-12,0,0.383995443583,0.0120060062036,28
521315000000,36400,521315000000,0,0.300000011921,-10,0,0.327894449234,0.00147726805881,24
521326000000,36401,521326000000,0,0.300000011921,-13,0,0.393413960934,-0.005824114196,38
521337000000,36402,521337000000,0,0.300000011921,-12,0,0.36272546649,-0.00511262752116,38
521347000000,36403,521347000000,0,0.300000011921,-12,0,0.364106476307,-0.00133097544312,33
521357000000,36404,521357000000,0,0.300000011921,-12,0,0.365854650736,-0.00708614196628,35
521369000000,36405,521369000000,0,0.300000011921,-11,0,0.33553481102,-0.00299960467964,44
521378000000,36406,521378000000,0,0.300000011921,-12,0,0.386646151543,0.00196976377629,37
521388000000,36407,521388000000,0,0.300000011921,-11,0,0.345835566521,0.00337686412968,29
521399000000,36408,521399000000,0,0.300000011921,-11,0,0.35339435935,0.00810790900141,36
521411000000,36409,521411000000,0,0.300000011921,-12,0,0.36419776082,-0.000593040254898,48
521421000000,36410,521421000000,0,0.300000011921,-12,0,0.386215150356,0.00028219842352,44
521430000000,36411,521430000000,0,0.300000011921,-11,0,0.345166444778,-0.00224496144801,34
521441000000,36412,521441000000,0,0.300000011921,-11,0,0.353791773319,-0.00330306496471,37
521452000000,36413,521452000000,0,0.300000011921,-12,0,0.379618287086,0.00787300802767,49
521462000000,36414,521462000000,0,0.300000011921,-11,0,0.344427466393,0.00396775547415,40
521472000000,36415,521472000000,0,0.300000011921,-12,0,0.36260420084,0.0113463755697,36
521482000000,36416,521482000000,0,0.300000011921,-10,0,0.32733002305,0.000865789421368,32
521494000000,36417,521494000000,0,0.300000011921,-12,0,0.379569172859,-0.000845335307531,46
521503000000,36418,521503000000,0,0.300000011921,-11,0,0.336008906364,-0.00264745904133,33
521514000000,36419,521514000000,0,0.300000011921,-11,0,0.343364655972,0.0149825951084,33
521524000000,36420,521524000000,0,0.300000011921,-11,0,0.34723842144,0.000329111178871,32
521535000000,36421,521535000000,0,0.300000011921,-11,0,0.345156550407,0.00123277679086,39
521546000000,36422,521546000000,0,0.300000011921,-12,0,0.366520524025,-0.00028757401742,41
521556000000,36423,521556000000,0,0.300000011921,-10,0,0.320259571075,0.00184411508963,36
521567000000,36424,521567000000,0,0.300000011921,-11,0,0.352327227592,8.21591820568e-05,44
521577000000,36425,521577000000,0,0.300000011921,-11,0,0.330908387899,-0.00299429195002,42
521588000000,36426,521588000000,0,0.300000011921,-12,0,0.361866533756,0.00112814758904,42
521598000000,36427,521598000000,0,0.300000011921,-11,0,0.332973659039,0.000141843222082,32
521608000000,36428,521608000000,0,0.300000011921,-10,0,0.305194914341,0.00131932552904,30
521619000000,36429,521619000000,0,0.300000011921,-11,0,0.35230460763,-0.00663864985108,46
521629000000,36430,521629000000,0,0.300000011921,-10,0,0.308053940535,0.00115192052908,41
521639000000,36431,521639000000,0,0.300000011921,-10,0,0.326319903135,0.0136254364625,28
521650000000,36432,521650000000,0,0.300000011921,-10,0,0.311286658049,-0.00120538473129,37
521661000000,36433,521661000000,0,0.300000011921,-11,0,0.346969842911,0.00114683515858,43
521671000000,36434,521671000000,0,0.300000011921,-9,0,0.295169830322,-0.00117485399824,35
521681000000,36435,521681000000,0,0.300000011921,-10,0,0.305309474468,0.00705697014928,35
521692000000,36436,521692000000,0,0.300000011921,-10,0,0.324353337288,-0.00100583944004,39
521703000000,36437,521703000000,0,0.300000011921,-10,0,0.313075721264,0.00055320217507,46
521713000000,36438,521713000000,0,0.300000011921,-10,0,0.304505079985,-8.22406727821e-05,43
521722000000,36439,521722000000,0,0.300000011921,-9,0,0.272763669491,-0.00271066161804,30
521733000000,36440,521733000000,0,0.300000011921,-10,0,0.3199647367,0.00104720937088,38
521744000000,36441,521744000000,0,0.300000011921,-10,0,0.30929517746,-0.00301522156224,45
521754000000,36442,521754000000,0,0.300000011921,-10,0,0.311997741461,0.00204723561183,38
521765000000,36443,521765000000,0,0.300000011921,-10,0,0.315146714449,-0.00097182119498,34
521775000000,36444,521775000000,0,0.300000011921,-9,0,0.298474341631,0.000605871144217,39
521786000000,36445,521786000000,0,0.300000011921,-11,0,0.347282230854,0.0106354253367,37
521796000000,36446,521796000000,0,0.300000011921,-9,0,0.291015028954,0.0028136796318,36
521806000000,36447,521806000000,0,0.300000011921,-10,0,0.316083490849,0.00276565225795,31
521817000000,36448,521817000000,0,0.300000011921,-10,0,0.302743256092,0.00059961155057,39
521828000000,36449,521828000000,0,0.300000011921,-11,0,0.343385696411,0.0104094669223,41
521837000000,36450,521837000000,0,0.300000011921,-9,0,0.285579562187,0.0013760253787,34
521847000000,36451,521847000000,0,0.300000011921,-10,0,0.321374922991,-0.00499362777919,24
521858000000,36452,521858000000,0,0.300000011921,-11,0,0.345830261707,0.00110572087578,35
521869000000,36453,521869000000,0,0.300000011921,-10,0,0.313959777355,0.00581268314272,41
521880000000,36454,521880000000,0,0.300000011921,-11,0,0.334908485413,-0.000476713874377,38
521890000000,36455,521890000000,0,0.300000011921,-10,0,0.310024499893,0.00628355331719,32
521900000000,36456,521900000000,0,0.300000011921,-12,0,0.362560778856,0.0036590595264,37
521911000000,36457,521911000000,0,0.300000011921,-10,0,0.326017707586,0.00369623955339,44
521921000000,36458,521921000000,0,0.300000011921,-11,0,0.342081665993,0.000627290108241,36
521931000000,36459,521931000000,0,0.300000011921,-11,0,0.33630040288,0.00133349979296,33
521942000000,36460,521942000000,0,0.300000011921,-11,0,0.342049896717,0.00147904513869,31
521953000000,36461,521953000000,0,0.300000011921,-12,0,0.362165153027,-0.00194500293583,45
521963000000,36462,521963000000,0,0.300000011921,-10,0,0.307297199965,0.00356650631875,35
521973000000,36463,521973000000,0,0.300000011921,-11,0,0.339155316353,0.00575580075383,36
521984000000,36464,521984000000,0,0.300000011921,-11,0,0.343417704105,-0.00222645606846,36
521995000000,36465,521995000000,0,0.300000011921,-11,0,0.356878697872,-0.0190385505557,45
522004000000,36466,522004000000,0,0.300000011921,-10,0,0.31662017107,-0.0029542981647,34
522015000000,36467,522015000000,0,0.300000011921,-11,0,0.346175044775,-0.00103486771695,32
522026000000,36468,522026000000,0,0.300000011921,-12,0,0.381797075272,0.00240858783945,42
522036000000,36469,522036000000,0,0.300000011921,-11,0,0.342966914177,0.00169861619361,41
522046000000,36470,522046000000,0,0.300000011921,-12,0,0.371992319822,-0.00108750769868,32
522057000000,36471,522057000000,0,0.300000011921,-10,0,0.320811033249,0.00542712211609,37
522068000000,36472,522068000000,0,0.300000011921,-12,0,0.383285820484,-0.000275941856671,42
522078000000,36473,522078000000,0,0.300000011921,-11,0,0.351569414139,-0.00146342231892,46
522088000000,36474,522088000000,0,0.300000011921,-12,0,0.360120207071,-0.000943742226809,33
522098000000,36475,522098000000,0,0.300000011921,-11,0,0.35785895586,-0.000296272977721,32
522109000000,36476,522109000000,0,0.300000011921,-11,0,0.353269577026,-0.00433798553422,35
522120000000,36477,522120000000,0,0.300000011921,-12,0,0.382595717907,0.0051287105307,43
522129000000,36478,522129000000,0,0.300000011921,-10,0,0.327085286379,0.00446767080575,30
522140000000,36479,522140000000,0,0.300000011921,-12,0,0.360258936882,0.00547872390598,32
522151000000,36480,522151000000,0,0.300000011921,-12,0,0.360572099686,-0.00213572965004,44
522161000000,36481,522161000000,0,0.300000011921,-13,0,0.397983551025,0.00011376326438,37
522172000000,36482,522172000000,0,0.300000011921,-11,0,0.335678219795,-0.00382774695754,37
522182000000,36483,522182000000,0,0.300000011921,-11,0,0.353242754936,-0.000430704734754,40
522193000000,36484,522193000000,0,0.300000011921,-12,0,0.379189819098,-0.00622167252004,47
522203000000,36485,522203000000,0,0.300000011921,-11,0,0.34532392025,0.00779779814184,37
522214000000,36486,522214000000,0,0.300000011921,-12,0,0.368149101734,0.00158002623357,40
522225000000,36487,522225000000,0,0.300000011921,-10,0,0.316349983215,0.00109894666821,46
522235000000,36488,522235000000,0,0.300000011921,-13,0,0.392215073109,-0.00155054917559,42
522246000000,36489,522246000000,0,0.300000011921,-11,0,0.345954060555,0.0120724979788,49
522255000000,36490,522255000000,0,0.300000011921,-12,0,0.38016808033,0.000623233732767,31
522265000000,36491,522265000000,0,0.300000011921,-11,0,0.346127331257,0.000593655975536,32
522277000000,36492,522277000000,0,0.300000011921,-11,0,0.358209788799,0.000106634717667,45
522287000000,36493,522287000000,0,0.300000011921,-12,0,0.388163387775,-0.00227141007781,45
522297000000,36494,522297000000,0,0.300000011921,-10,0,0.320697307587,0.00370473857038,41
522307000000,36495,522307000000,0,0.300000011921,-10,0,0.324263781309,0.0197409298271,37
522319000000,36496,522319000000,0,0.300000011921,-11,0,0.359144866467,-0.00582197355106,50
522329000000,36497,522329000000,0,0.300000011921,-12,0,0.389650523663,0.00646442361176,42
522339000000,36498,522339000000,0,0.300000011921,-11,0,0.338956415653,0.00426872260869,38
522349000000,36499,522349000000,0,0.300000011921,-12,0,0.360759913921,0.00212517241016,32
522360000000,36500,522360000000,0,0.300000011921,-13,0,0.391705155373,0.00182543310802,44
522370000000,36501,522370000000,0,0.300000011921,-11,0,0.34176042676,0.00718703912571,43
522381000000,36502,522381000000,0,0.300000011921,-12,0,0.366376817226,-0.00501540629193,40
522391000000,36503,522391000000,0,0.300000011921,-10,0,0.32364487648,0.00216066511348,34
522402000000,36504,522402000000,0,0.300000011921,-13,0,0.392192602158,-0.00717881182209,45
522412000000,36505,522412000000,0,0.300000011921,-11,0,0.336315453053,0.0057492479682,43
522422000000,36506,522422000000,0,0.300000011921,-12,0,0.379391908646,0.00848265830427,34
522433000000,36507,522433000000,0,0.300000011921,-11,0,0.355331063271,-0.00582289602607,38
522444000000,36508,522444000000,0,0.300000011921,-11,0,0.356031566858,-0.0103690326214,43
522454000000,36509,522454000000,0,0.300000011921,-12,0,0.380084276199,-0.00717420130968,38
522463000000,36510,522463000000,0,0.300000011921,-11,0,0.338545978069,0.00622647115961,29
522475000000,36511,522475000000,0,0.300000011921,-11,0,0.355294585228,0.00123073975556,43
522485000000,36512,522485000000,0,0.300000011921,-11,0,0.358543097973,-0.00813870783895,40
522495000000,36513,522495000000,0,0.300000011921,-12,0,0.377111554146,0.000988051644526,39
522505000000,36514,522505000000,0,0.300000011921,-11,0,0.332362264395,0.014737104997,33
522515000000,36515,522515000000,0,0.300000011921,-12,0,0.362263679504,-0.00364106893539,26
522528000000,36516,522528000000,0,0.300000011921,-12,0,0.385889649391,-0.00418343860656,50
522538000000,36517,522538000000,0,0.300000011921,-11,0,0.345189839602,0.000266655988526,48
522548000000,36518,522548000000,0,0.300000011921,-12,0,0.367432147264,0.0137483794242,45
522558000000,36519,522558000000,0,0.300000011921,-11,0,0.337923586369,-0.00316454679705,37
522569000000,36520,522569000000,0,0.300000011921,-12,0,0.389360249043,0.00310726929456,48
522579000000,36521,522579000000,0,0.300000011921,-11,0,0.340484172106,-0.00433512823656,43
522589000000,36522,522589000000,0,0.300000011921,-11,0,0.348269999027,-0.0125613566488,35
522600000000,36523,522600000000,0,0.300000011921,-12,0,0.369082987309,0.00073840119876,40
522610000000,36524,522610000000,0,0.300000011921,-11,0,0.352145731449,-0.00285144592635,41
522620000000,36525,522620000000,0,0.300000011921,-12,0,0.365079402924,0.00146441056859,33
522630000000,36526,522630000000,0,0.300000011921,-10,0,0.329756528139,0.0013081462821,28
522641000000,36527,522641000000,0,0.300000011921,-12,0,0.370258331299,5.39476932317e-05,38
522652000000,36528,522652000000,0,0.300000011921,-12,0,0.361760228872,-0.00500745652243,43
522663000000,36529,522663000000,0,0.300000011921,-12,0,0.374355077744,0.0026268158108,43
522672000000,36530,522672000000,0,0.300000011921,-11,0,0.342945635319,0.00866540241987,28
522683000000,36531,522683000000,0,0.300000011921,-12,0,0.375686377287,0.00123704620637,38
522694000000,36532,522694000000,0,0.300000011921,-13,0,0.396843254566,0.00249370886013,44
522705000000,36533,522705000000,0,0.300000011921,-11,0,0.344467103481,0.00518732983619,43
522714000000,36534,522714000000,0,0.300000011921,-12,0,0.362254053354,0.00365908117965,28
522726000000,36535,522726000000,0,0.300000011921,-11,0,0.349929451942,0.00460603041574,47
522736000000,36536,522736000000,0,0.300000011921,-12,0,0.384077429771,0.00786792486906,46
522746000000,36537,522746000000,0,0.300000011921,-11,0,0.338539481163,0.00140021240804,37
522756000000,36538,522756000000,0,0.300000011921,-12,0,0.362828344107,0.0045831692405,33
522766000000,36539,522766000000,0,0.300000011921,-12,0,0.373781561852,-0.000399672193453,35
522778000000,36540,522778000000,0,0.300000011921,-11,0,0.341969013214,-0.00225058593787,44
522788000000,36541,522788000000,0,0.300000011921,-12,0,0.368676662445,0.0012760811951,45
522799000000,36542,522799000000,0,0.300000011921,-10,0,0.328204005957,0.00149011006579,48
522808000000,36543,522808000000,0,0.300000011921,-12,0,0.373057126999,-0.00210803514346,35
522819000000,36544,522819000000,0,0.300000011921,-11,0,0.338934361935,0.0138751640916,43
522830000000,36545,522830000000,0,0.300000011921,-11,0,0.352301001549,-0.00192774971947,43
522839000000,36546,522839000000,0,0.300000011921,-11,0,0.333834767342,-0.00623888103291,26
522851000000,36547,522851000000,0,0.300000011921,-12,0,0.381140708923,0.00110214226879,44
522861000000,36548,522861000000,0,0.300000011921,-12,0,0.379403471947,0.0052974098362,48
522872000000,36549,522872000000,0,0.300000011921,-11,0,0.3393638134,0.00247233803384,46
522881000000,36550,522881000000,0,0.300000011921,-11,0,0.357075482607,-0.00329575361684,33
522892000000,36551,522892000000,0,0.300000011921,-11,0,0.347185194492,0.00203874334693,41
522903000000,36552,522903000000,0,0.300000011921,-12,0,0.377414166927,0.0025581298396,44
522913000000,36553,522913000000,0,0.300000011921,-11,0,0.34347987175,0.000474531785585,43
522923000000,36554,522923000000,0,0.300000011921,-11,0,0.347394913435,0.00317543628626,41
522934000000,36555,522934000000,0,0.300000011921,-12,0,0.366103947163,-0.00166494585574,44
522945000000,36556,522945000000,0,0.300000011921,-11,0,0.344395190477,0.00480977166444,52
522955000000,36557,522955000000,0,0.300000011921,-11,0,0.3588783741,0.0065147113055,43
522964000000,36558,522964000000,0,0.300000011921,-10,0,0.317746043205,0.00620788149536,31
522976000000,36559,522976000000,0,0.300000011921,-12,0,0.3841124475,0.000630873488262,46
522987000000,36560,522987000000,0,0.300000011921,-11,0,0.35152810812,-0.00199561333284,49
522997000000,36561,522997000000,0,0.300000011921,-12,0,0.366002678871,0.00446027098224,44
523006000000,36562,523006000000,0,0.300000011921,-11,0,0.345189511776,0.0074333883822,30
523018000000,36563,523018000000,0,0.300000011921,-12,0,0.389956831932,0.000619887141511,49
523028000000,36564,523028000000,0,0.300000011921,-12,0,0.366541564465,-0.00963923800737,46
523037000000,36565,523037000000,0,0.300000011921,-11,0,0.338335633278,0.00256046350114,30
523049000000,36566,523049000000,0,0.300000011921,-11,0,0.351892948151,-0.00465803965926,42
523059000000,36567,523059000000,0,0.300000011921,-11,0,0.351586967707,-0.000982582219876,43
523070000000,36568,523070000000,0,0.300000011921,-12,0,0.365193247795,-0.0100672421977,52
523080000000,36569,523080000000,0,0.300000011921,-10,0,0.318388968706,0.00300912489183,42
523090000000,36570,523090000000,0,0.300000011921,-11,0,0.348598212004,-0.00430389679968,31
523101000000,36571,523101000000,0,0.300000011921,-12,0,0.385903418064,0.00370623311028,43
523112000000,36572,523112000000,0,0.300000011921,-11,0,0.344349265099,0.00483592506498,54
523122000000,36573,523122000000,0,0.300000011921,-11,0,0.351699084044,-0.00340658565983,39
523132000000,36574,523132000000,0,0.300000011921,-10,0,0.317121982574,-0.0136139187962,32
523143000000,36575,523143000000,0,0.300000011921,-12,0,0.382648169994,-0.000236056715949,49
523153000000,36576,523153000000,0,0.300000011921,-11,0,0.350326985121,-0.000550363678485,43
523164000000,36577,523164000000,0,0.300000011921,-11,0,0.35958224535,-0.000974699156359,46
523174000000,36578,523174000000,0,0.300000011921,-11,0,0.351274728775,2.90536008833e-05,38
523185000000,36579,523185000000,0,0.300000011921,-11,0,0.353625923395,0.000511378108058,44
523196000000,36580,523196000000,0,0.300000011921,-12,0,0.367057144642,0.00484530534595,50
523205000000,36581,523205000000,0,0.300000011921,-10,0,0.325583636761,0.00702431006357,38
523215000000,36582,523215000000,0,0.300000011921,-11,0,0.351102173328,-0.00316212512553,38
523227000000,36583,523227000000,0,0.300000011921,-11,0,0.356436789036,0.00241062534042,48
523238000000,36584,523238000000,0,0.300000011921,-12,0,0.371140897274,0.010878671892,53
523247000000,36585,523247000000,0,0.300000011921,-10,0,0.325132966042,0.00260815955698,42
523257000000,36586,523257000000,0,0.300000011921,-11,0,0.338591992855,-0.00368298427202,36
523268000000,36587,523268000000,0,0.300000011921,-12,0,0.386277139187,0.00406297622249,42
523279000000,36588,523279000000,0,0.300000011921,-11,0,0.345445662737,0.00912945345044,55
523289000000,36589,523289000000,0,0.300000011921,-11,0,0.347872108221,0.0110483346507,39
523299000000,36590,523299000000,0,0.300000011921,-10,0,0.315809965134,-0.00184999278281,36
523310000000,36591,523310000000,0,0.300000011921,-12,0,0.384182840586,-0.00237559084781,46
523321000000,36592,523321000000,0,0.300000011921,-11,0,0.339057087898,-0.00987251568586,41
523330000000,36593,523330000000,0,0.300000011921,-12,0,0.37295037508,0.00400129379705,38
523340000000,36594,523340000000,0,0.300000011921,-12,0,0.361416816711,0.00097299925983,35
523352000000,36595,523352000000,0,0.300000011921,-11,0,0.356771409512,0.00277964607812,46
523362000000,36596,523362000000,0,0.300000011921,-12,0,0.379683464766,-0.0054211136885,41
523372000000,36597,523372000000,0,0.300000011921,-11,0,0.343806147575,0.00435906928033,38
523382000000,36598,523382000000,0,0.300000011921,-12,0,0.366982221603,-0.00127675221302,38
523393000000,36599,523393000000,0,0.300000011921,-11,0,0.359187662601,0.00536574469879,38
523404000000,36600,523404000000,0,0.300000011921,-12,0,0.382245212793,0.00628838175908,44
523414000000,36601,523414000000,0,0.300000011921,-10,0,0.32893383503,0.00422246754169,36
523424000000,36602,523424000000,0,0.300000011921,-12,0,0.365612387657,-0.00691386824474,33
523435000000,36603,523435000000,0,0.300000011921,-13,0,0.395996838808,0.00309303007089,44
523446000000,36604,523446000000,0,0.300000011921,-11,0,0.355232954025,-0.00133382272907,50
523455000000,36605,523455000000,0,0.300000011921,-12,0,0.377414822578,0.00691494392231,33
523466000000,36606,523466000000,0,0.300000011921,-11,0,0.338876515627,0.00174894602969,38
523477000000,36607,523477000000,0,0.300000011921,-13,0,0.394592046738,-0.000157603964908,45
523487000000,36608,523487000000,0,0.300000011921,-11,0,0.341609716415,-0.00209694774821,38
523497000000,36609,523497000000,0,0.300000011921,-11,0,0.34160721302,0.00864082761109,31
523508000000,36610,523508000000,0,0.300000011921,-11,0,0.349116683006,-0.0037842632737,37
523519000000,36611,523519000000,0,0.300000011921,-11,0,0.353402256966,0.0023404113017,43
523529000000,36612,523529000000,0,0.300000011921,-12,0,0.375684082508,0.000488887599204,42
523539000000,36613,523539000000,0,0.300000011921,-11,0,0.330088675022,0.00662521412596,37
523549000000,36614,523549000000,0,0.300000011921,-11,0,0.354862570763,-0.000186755962204,36
523560000000,36615,523560000000,0,0.300000011921,-11,0,0.34696367383,-0.00161210424267,42
523571000000,36616,523571000000,0,0.300000011921,-12,0,0.375414192677,0.00374634098262,43
523580000000,36617,523580000000,0,0.300000011921,-11,0,0.335439026356,0.00254979659803,28
523591000000,36618,523591000000,0,0.300000011921,-11,0,0.358294695616,-0.000737560796551,36
523602000000,36619,523602000000,0,0.300000011921,-12,0,0.379281461239,0.00363037199713,45
523612000000,36620,523612000000,0,0.300000011921,-11,0,0.338725835085,-0.00227741291746,36
523623000000,36621,523623000000,0,0.300000011921,-11,0,0.349910438061,-0.00101331667975,46
523633000000,36622,523633000000,0,0.300000011921,-10,0,0.323088824749,0.00612607738003,33
523644000000,36623,523644000000,0,0.300000011921,-12,0,0.367912620306,-0.0094456858933,51
523654000000,36624,523654000000,0,0.300000011921,-11,0,0.334477066994,0.0085561517626,42
523665000000,36625,523665000000,0,0.300000011921,-11,0,0.33966255188,0.00405765417963,46
523675000000,36626,523675000000,0,0.300000011921,-11,0,0.347048282623,0.00184835866094,41
523686000000,36627,523686000000,0,0.300000011921,-11,0,0.345973968506,0.00249872892164,44
523697000000,36628,523697000000,0,0.300000011921,-12,0,0.3631554842,0.00219520973042,51
523705000000,36629,523705000000,0,0.300000011921,-10,0,0.321912229061,-0.00372752663679,30
523716000000,36630,523716000000,0,0.300000011921,-11,0,0.339840173721,-0.00188569445163,35
523728000000,36631,523728000000,0,0.300000011921,-11,0,0.339738875628,0.0078825475648,48
523738000000,36632,523738000000,0,0.300000011921,-11,0,0.3588296175,-0.000523817143403,45
523747000000,36633,523747000000,0,0.300000011921,-10,0,0.324165999889,0.0113374721259,34
523758000000,36634,523758000000,0,0.300000011921,-11,0,0.3426900208,-0.000111799919978,36
523770000000,36635,523770000000,0,0.300000011921,-12,0,0.376966118813,0.00530741550028,47
523779000000,36636,523779000000,0,0.300000011921,-10,0,0.32876226306,0.00299500953406,43
523790000000,36637,523790000000,0,0.300000011921,-11,0,0.344728410244,0.00780800869688,44
523801000000,36638,523801000000,0,0.300000011921,-10,0,0.319041669369,0.00109372159932,46
523811000000,36639,523811000000,0,0.300000011921,-12,0,0.367269158363,-0.00600088061765,49
523821000000,36640,523821000000,0,0.300000011921,-10,0,0.324006676674,8.43628367875e-05,42
523831000000,36641,523831000000,0,0.300000011921,-11,0,0.336519300938,0.00179526396096,40
523842000000,36642,523842000000,0,0.300000011921,-12,0,0.364164412022,0.00168845499866,40
523853000000,36643,523853000000,0,0.300000011921,-10,0,0.328208982944,0.00350837758742,51
523863000000,36644,523863000000,0,0.300000011921,-12,0,0.362356603146,0.00295108626597,42
523873000000,36645,523873000000,0,0.300000011921,-10,0,0.313468575478,0.0016146840062,34
523884000000,36646,523884000000,0,0.300000011921,-11,0,0.358917713165,-0.000890668423381,48
523895000000,36647,523895000000,0,0.300000011921,-11,0,0.336821436882,-0.00087245751638,48
523905000000,36648,523905000000,0,0.300000011921,-11,0,0.350095510483,-0.00480980239809,42
523914000000,36649,523914000000,0,0.300000011921,-10,0,0.320619642735,0.00278511201032,30
523926000000,36650,523926000000,0,0.300000011921,-12,0,0.363261222839,0.00117541349027,43
523936000000,36651,523936000000,0,0.300000011921,-11,0,0.357016593218,0.00614136504009,43
523946000000,36652,523946000000,0,0.300000011921,-10,0,0.327719986439,0.000470678030979,37
523957000000,36653,523957000000,0,0.300000011921,-11,0,0.339509993792,-0.00418754247949,43
523966000000,36654,523966000000,0,0.300000011921,-11,0,0.334044933319,0.000415140122641,32
523978000000,36655,523978000000,0,0.300000011921,-12,0,0.363306134939,0.00424146698788,43
523988000000,36656,523988000000,0,0.300000011921,-10,0,0.307244777679,0.000874900608324,43
523998000000,36657,523998000000,0,0.300000011921,-11,0,0.335098206997,0.00973606668413,34
524009000000,36658,524009000000,0,0.300000011921,-12,0,0.361933708191,-0.00123455235735,45
524020000000,36659,524020000000,0,0.300000011921,-11,0,0.337897241116,0.0026880428195,46
524030000000,36660,524030000000,0,0.300000011921,-12,0,0.36011582613,-0.00278079463169,42
524040000000,36661,524040000000,0,0.300000011921,-10,0,0.31903386116,-0.00221685762517,36
524051000000,36662,524051000000,0,0.300000011921,-12,0,0.373725175858,0.00231468607672,48
524061000000,36663,524061000000,0,0.300000011921,-11,0,0.339493513107,6.29466376267e-05,40
524071000000,36664,524071000000,0,0.300000011921,-11,0,0.356753319502,0.00611465517431,35
524081000000,36665,524081000000,0,0.300000011921,-10,0,0.318758010864,-0.00175488099921,29
524093000000,36666,524093000000,0,0.300000011921,-12,0,0.387247860432,0.00100014230702,47
524104000000,36667,524104000000,0,0.300000011921,-12,0,0.36436778307,-0.0049133291468,47
524113000000,36668,524113000000,0,0.300000011921,-10,0,0.325026333332,-0.000154748675413,33
524124000000,36669,524124000000,0,0.300000011921,-11,0,0.355303108692,0.00742419809103,39
524135000000,36670,524135000000,0,0.300000011921,-11,0,0.348819702864,2.11121805478e-05,46
524145000000,36671,524145000000,0,0.300000011921,-12,0,0.365967452526,-0.00183616625145,44
524155000000,36672,524155000000,0,0.300000011921,-10,0,0.324794173241,-0.00134795717895,43
524165000000,36673,524165000000,0,0.300000011921,-11,0,0.34443333745,0.00354738719761,32
524176000000,36674,524176000000,0,0.300000011921,-12,0,0.385968089104,0.00390370376408,43
524187000000,36675,524187000000,0,0.300000011921,-11,0,0.351692855358,0.00634067319334,44
524196000000,36676,524196000000,0,0.300000011921,-11,0,0.347972989082,0.00607383809984,37
524207000000,36677,524207000000,0,0.300000011921,-10,0,0.316369473934,0.00115109467879,36
524218000000,36678,524218000000,0,0.300000011921,-12,0,0.380255788565,4.85331911477e-05,45
524228000000,36679,524228000000,0,0.300000011921,-11,0,0.345166027546,-0.00152903411072,43
524238000000,36680,524238000000,0,0.300000011921,-11,0,0.358015477657,-1.42441131175e-05,40
524249000000,36681,524249000000,0,0.300000011921,-11,0,0.3313408494,0.00136352959089,43
524260000000,36682,524260000000,0,0.300000011921,-12,0,0.380511403084,0.000710099935532,50
524270000000,36683,524270000000,0,0.300000011921,-12,0,0.378449261189,0.00692343432456,39
524280000000,36684,524280000000,0,0.300000011921,-11,0,0.334288418293,0.00820528436452,42
524290000000,36685,524290000000,0,0.300000011921,-11,0,0.353570401669,0.00369157642126,37
524301000000,36686,524301000000,0,0.300000011921,-11,0,0.354769527912,-0.000308943912387,39
524311000000,36687,524311000000,0,0.300000011921,-12,0,0.361776828766,-0.00277685560286,38
524322000000,36688,524322000000,0,0.300000011921,-10,0,0.310609668493,-0.003177507082,36
524332000000,36689,524332000000,0,0.300000011921,-11,0,0.330081343651,-0.0128699429333,41
524344000000,36690,524344000000,0,0.300000011921,-12,0,0.384602218866,-2.41592060775e-05,49
524354000000,36691,524354000000,0,0.300000011921,-11,0,0.343963563442,0.00576333934441,49
524364000000,36692,524364000000,0,0.300000011921,-11,0,0.347130715847,-0.0169747956097,41
524374000000,36693,524374000000,0,0.300000011921,-10,0,0.319944739342,0.00174125365447,36
524384000000,36694,524384000000,0,0.300000011921,-12,0,0.383150011301,-0.00211190339178,37
524396000000,36695,524396000000,0,0.300000011921,-11,0,0.343458563089,0.000600935018156,48
524405000000,36696,524405000000,0,0.300000011921,-12,0,0.36572599411,0.00272853206843,35
524416000000,36697,524416000000,0,0.300000011921,-10,0,0.314437955618,-0.00497320946306,43
524427000000,36698,524427000000,0,0.300000011921,-12,0,0.38362622261,0.00277022621594,44
524437000000,36699,524437000000,0,0.300000011921,-12,0,0.368152290583,-0.00795230269432,45
524447000000,36700,524447000000,0,0.300000011921,-11,0,0.33759945631,-0.00176991231274,39
524457000000,36701,524457000000,0,0.300000011921,-11,0,0.343356907368,2.38682514464e-05,34
524468000000,36702,524468000000,0,0.300000011921,-11,0,0.355899512768,0.00197370024398,38
524479000000,36703,524479000000,0,0.300000011921,-12,0,0.372872591019,-0.00275248941034,41
524489000000,36704,524489000000,0,0.300000011921,-10,0,0.321338891983,-0.00426498986781,35
524499000000,36705,524499000000,0,0.300000011921,-11,0,0.3434445858,-0.000772030092776,39
524511000000,36706,524511000000,0,0.300000011921,-12,0,0.388719916344,-2.91372889478e-05,54
524521000000,36707,524521000000,0,0.300000011921,-11,0,0.33795273304,-1.33113173817e-08,53
524531000000,36708,524531000000,0,0.300000011921,-12,0,0.369542688131,0.00496250065044,40
524541000000,36709,524541000000,0,0.300000011921,-10,0,0.316749811172,0.000260110653471,38
524553000000,36710,524553000000,0,0.300000011921,-12,0,0.363945960999,0.0057860892266,50
524562000000,36711,524562000000,0,0.300000011921,-11,0,0.335638463497,0.00353614520282,45
524573000000,36712,524573000000,0,0.300000011921,-11,0,0.343450427055,0.00215433910489,42
524583000000,36713,524583000000,0,0.300000011921,-11,0,0.351190924644,-0.00108650303446,38
524594000000,36714,524594000000,0,0.300000011921,-11,0,0.351256966591,0.00133099011146,45
524604000000,36715,524604000000,0,0.300000011921,-12,0,0.360577821732,0.00140735309105,48
524614000000,36716,524614000000,0,0.300000011921,-10,0,0.320578187704,0.000479184323922,35
524624000000,36717,524624000000,0,0.300000011921,-11,0,0.34008616209,-0.00130876386538,33
524635000000,36718,524635000000,0,0.300000011921,-11,0,0.355237722397,-0.00571780325845,45
524646000000,36719,524646000000,0,0.300000011921,-12,0,0.366340756416,-0.0135263809934,40
524656000000,36720,524656000000,0,0.300000011921,-10,0,0.310359925032,0.0110360952094,37
524666000000,36721,524666000000,0,0.300000011921,-11,0,0.337086498737,-0.00512911565602,37
524677000000,36722,524677000000,0,0.300000011921,-12,0,0.380354583263,-0.00282951397821,48
524688000000,36723,524688000000,0,0.300000011921,-11,0,0.332748651505,-0.0016246563755,44
524698000000,36724,524698000000,0,0.300000011921,-11,0,0.340199232101,0.00347745558247,40
524708000000,36725,524708000000,0,0.300000011921,-10,0,0.310596466064,0.00240737549029,38
524719000000,36726,524719000000,0,0.300000011921,-12,0,0.364996790886,0.00949526019394,47
524729000000,36727,524729000000,0,0.300000011921,-10,0,0.327184379101,0.00671650562435,37
524739000000,36728,524739000000,0,0.300000011921,-11,0,0.354073256254,-0.00382486335002,33
524750000000,36729,524750000000,0,0.300000011921,-11,0,0.341125071049,-0.00314424885437,44
524761000000,36730,524761000000,0,0.300000011921,-11,0,0.344360888004,0.0007351457607,46
524771000000,36731,524771000000,0,0.300000011921,-12,0,0.364315629005,0.00275909062475,45
524781000000,36732,524781000000,0,0.300000011921,-10,0,0.324684262276,0.00836044270545,36
524792000000,36733,524792000000,0,0.300000011921,-11,0,0.348349183798,0.00715330429375,42
524803000000,36734,524803000000,0,0.300000011921,-10,0,0.325206756592,-0.0117780053988,50
524813000000,36735,524813000000,0,0.300000011921,-12,0,0.361580729485,-0.00153329502791,48
524823000000,36736,524823000000,0,0.300000011921,-10,0,0.325448602438,0.00366492965259,35
524833000000,36737,524833000000,0,0.300000011921,-12,0,0.364619553089,0.00163983507082,40
524844000000,36738,524844000000,0,0.300000011921,-12,0,0.381560742855,0.00119633739814,40
524855000000,36739,524855000000,0,0.300000011921,-11,0,0.34585621953,-1.16857318062e-05,47
524865000000,36740,524865000000,0,0.300000011921,-11,0,0.357266485691,0.00236841314472,38
524875000000,36741,524875000000,0,0.300000011921,-10,0,0.326299548149,-0.00105650164187,34
524886000000,36742,524886000000,0,0.300000011921,-12,0,0.382411420345,0.000767495948821,50
524896000000,36743,524896000000,0,0.300000011921,-10,0,0.32582834363,-0.0032172605861,45
524907000000,36744,524907000000,0,0.300000011921,-12,0,0.363353997469,0.000184171833098,43
524917000000,36745,524917000000,0,0.300000011921,-12,0,0.378001928329,3.84569102607e-05,40
524928000000,36746,524928000000,0,0.300000011921,-11,0,0.351879417896,0.000695175607689,49
524938000000,36747,524938000000,0,0.300000011921,-11,0,0.35611218214,0.00240594707429,41
524948000000,36748,524948000000,0,0.300000011921,-10,0,0.325815737247,0.00155650405213,34
524958000000,36749,524958000000,0,0.300000011921,-12,0,0.362155616283,0.000817466760054,29
524969000000,36750,524969000000,0,0.300000011921,-11,0,0.337702512741,0.00190186291002,44
524979000000,36751,524979000000,0,0.300000011921,-11,0,0.35501742363,0.00718009425327,40
524990000000,36752,524990000000,0,0.300000011921,-10,0,0.320272296667,0.00373547710478,43
525000000000,36753,525000000000,0,0.300000011921,-12,0,0.367080748081,0.00239112740383,37
525012000000,36754,525012000000,0,0.300000011921,-12,0,0.364524334669,0.00599157251418,53
525021000000,36755,525021000000,0,0.300000011921,-11,0,0.338719010353,-0.00771043263376,40
525031000000,36756,525031000000,0,0.300000011921,-11,0,0.354448974133,0.00194925907999,26
525043000000,36757,525043000000,0,0.300000011921,-11,0,0.342335790396,0.000279254396446,39
525053000000,36758,525053000000,0,0.300000011921,-11,0,0.337436497211,0.00865874812007,44
525063000000,36759,525063000000,0,0.300000011921,-10,0,0.329726755619,-0.00546634756029,43
525073000000,36760,525073000000,0,0.300000011921,-11,0,0.353146404028,-0.00342698115855,32
525083000000,36761,525083000000,0,0.300000011921,-12,0,0.3834464252,-0.0039248643443,35
525095000000,36762,525095000000,0,0.300000011921,-11,0,0.34950491786,-0.00135551881976,44
525105000000,36763,525105000000,0,0.300000011921,-12,0,0.365033626556,-0.0025696340017,42
525115000000,36764,525115000000,0,0.300000011921,-10,0,0.313524961472,0.00225262227468,33
525126000000,36765,525126000000,0,0.300000011921,-12,0,0.384023070335,-0.00250813085586,43
525136000000,36766,525136000000,0,0.300000011921,-10,0,0.32265612483,0.00762274162844,44
525146000000,36767,525146000000,0,0.300000011921,-11,0,0.346278965473,-0.00112002075184,40
525156000000,36768,525156000000,0,0.300000011921,-10,0,0.322982519865,0.00252043572254,26
525167000000,36769,525167000000,0,0.300000011921,-12,0,0.383432149887,-0.00168536044657,39
525178000000,36770,525178000000,0,0.300000011921,-12,0,0.364681333303,0.0101585369557,40
525188000000,36771,525188000000,0,0.300000011921,-11,0,0.337019711733,0.00265757506713,35
525198000000,36772,525198000000,0,0.300000011921,-11,0,0.348885893822,-0.0014571325155,33
525209000000,36773,525209000000,0,0.300000011921,-11,0,0.350421786308,-4.25243670179e-05,38
525220000000,36774,525220000000,0,0.300000011921,-12,0,0.37476760149,0.00743762077764,46
525230000000,36775,525230000000,0,0.300000011921,-11,0,0.333382368088,-0.0030880915001,35
525240000000,36776,525240000000,0,0.300000011921,-11,0,0.357790112495,-0.00160397624131,29
525251000000,36777,525251000000,0,0.300000011921,-12,0,0.389958620071,0.000551224686205,38
525261000000,36778,525261000000,0,0.300000011921,-11,0,0.333683490753,0.00188531703316,40
525271000000,36779,525271000000,0,0.300000011921,-12,0,0.361872822046,-0.00264544389211,34
525282000000,36780,525282000000,0,0.300000011921,-10,0,0.317805349827,0.00174448033795,33
525293000000,36781,525293000000,0,0.300000011921,-12,0,0.386750608683,0.00183117133565,39
525303000000,36782,525303000000,0,0.300000011921,-10,0,0.328442633152,0.00555017031729,43
525313000000,36783,525313000000,0,0.300000011921,-11,0,0.357005834579,0.0127885267138,37
525323000000,36784,525323000000,0,0.300000011921,-10,0,0.323185294867,0.00273159402423,31
525334000000,36785,525334000000,0,0.300000011921,-12,0,0.387145340443,4.43061580881e-05,40
525345000000,36786,525345000000,0,0.300000011921,-11,0,0.352837234735,-0.000355590949766,43
525355000000,36787,525355000000,0,0.300000011921,-10,0,0.321714282036,-0.00924012623727,35
525365000000,36788,525365000000,0,0.300000011921,-11,0,0.3541457057,0.00118585501332,33
525376000000,36789,525376000000,0,0.300000011921,-11,0,0.358421593904,0.000694879388902,43
525387000000,36790,525387000000,0,0.300000011921,-12,0,0.376944988966,0.0100731812418,43
525396000000,36791,525396000000,0,0.300000011921,-10,0,0.324583292007,0.0029236911796,32
525407000000,36792,525407000000,0,0.300000011921,-11,0,0.348907619715,0.00433326559141,32
525418000000,36793,525418000000,0,0.300000011921,-12,0,0.386608660221,-0.000839541200548,48
525429000000,36794,525429000000,0,0.300000011921,-10,0,0.326747953892,0.00327713228762,45
525438000000,36795,525438000000,0,0.300000011921,-12,0,0.363228261471,0.00984114967287,31
525449000000,36796,525449000000,0,0.300000011921,-10,0,0.321051299572,-0.0022121029906,34
525460000000,36797,525460000000,0,0.300000011921,-12,0,0.389966547489,0.000684768776409,39
525471000000,36798,525471000000,0,0.300000011921,-11,0,0.349484115839,0.0109509062022,47
525480000000,36799,525480000000,0,0.300000011921,-12,0,0.384732663631,0.00529783638194,38
525490000000,36800,525490000000,0,0.300000011921,-11,0,0.332471430302,-0.00436395453289,33
525502000000,36801,525502000000,0,0.300000011921,-12,0,0.381129622459,-0.00268471287563,46
525512000000,36802,525512000000,0,0.300000011921,-12,0,0.36694547534,-0.00147488503717,39
525522000000,36803,525522000000,0,0.300000011921,-11,0,0.332376241684,-0.00445172004402,36
525533000000,36804,525533000000,0,0.300000011921,-11,0,0.359908252954,0.00223809876479,38
525543000000,36805,525543000000,0,0.300000011921,-11,0,0.35809224844,0.0022515298333,35
525554000000,36806,525554000000,0,0.300000011921,-11,0,0.359554708004,-0.00517316022888,40
525564000000,36807,525564000000,0,0.300000011921,-11,0,0.338424623013,0.00165620108601,40
525574000000,36808,525574000000,0,0.300000011921,-11,0,0.357515633106,0.00421495083719,38
525585000000,36809,525585000000,0,0.300000011921,-12,0,0.385248124599,0.000127409162815,40
525595000000,36810,525595000000,0,0.300000011921,-10,0,0.326516002417,-0.00144755304791,41
525605000000,36811,525605000000,0,0.300000011921,-11,0,0.359290242195,0.0207057353109,31
525616000000,36812,525616000000,0,0.300000011921,-10,0,0.328046798706,-0.00181920430623,35
525627000000,36813,525627000000,0,0.300000011921,-13,0,0.394373297691,0.0006056597922,39
525637000000,36814,525637000000,0,0.300000011921,-11,0,0.341006428003,0.00877179671079,39
525647000000,36815,525647000000,0,0.300000011921,-12,0,0.361955225468,-0.00269169732928,34
525658000000,36816,525658000000,0,0.300000011921,-10,0,0.323596566916,-6.59737270325e-05,39
525668000000,36817,525668000000,0,0.300000011921,-12,0,0.387897700071,-0.00395126827061,41
525679000000,36818,525679000000,0,0.300000011921,-12,0,0.368264496326,0.00384293752722,39
525689000000,36819,525689000000,0,0.300000011921,-11,0,0.344250768423,0.00644294545054,37
525699000000,36820,525699000000,0,0.300000011921,-12,0,0.360160917044,0.000742796924897,29
525711000000,36821,525711000000,0,0.300000011921,-11,0,0.350597858429,0.004168165382,46
525721000000,36822,525721000000,0,0.300000011921,-12,0,0.370532810688,0.00696231937036,49
525731000000,36823,525731000000,0,0.300000011921,-11,0,0.341136515141,-0.00156097696163,38
525741000000,36824,525741000000,0,0.300000011921,-11,0,0.35378909111,-0.000578024308197,41
525752000000,36825,525752000000,0,0.300000011921,-13,0,0.391024291515,0.00550451967865,39
525762000000,36826,525762000000,0,0.300000011921,-11,0,0.338359475136,0.000637467659544,37
525772000000,36827,525772000000,0,0.300000011921,-12,0,0.362268924713,0.00964578427374,32
525783000000,36828,525783000000,0,0.300000011921,-10,0,0.325858056545,0.00327664287761,36
525793000000,36829,525793000000,0,0.300000011921,-12,0,0.384496897459,0.0064361449331,34
525804000000,36830,525804000000,0,0.300000011921,-10,0,0.326725423336,5.87265594731e-06,38
525814000000,36831,525814000000,0,0.300000011921,-11,0,0.350611686707,-0.00266577675939,39
525825000000,36832,525825000000,0,0.300000011921,-10,0,0.323025345802,0.00238154735416,41
525835000000,36833,525835000000,0,0.300000011921,-12,0,0.367693006992,-0.0113054262474,40
525846000000,36834,525846000000,0,0.300000011921,-12,0,0.363074809313,-0.00272909644991,42
525856000000,36835,525856000000,0,0.300000011921,-10,0,0.318069964647,0.0077769337222,34
525866000000,36836,525866000000,0,0.300000011921,-11,0,0.358444750309,0.00199079397134,36
525877000000,36837,525877000000,0,0.300000011921,-11,0,0.352449476719,0.0112835811451,44
525887000000,36838,525887000000,0,0.300000011921,-12,0,0.368018448353,0.00258756102994,36
525897000000,36839,525897000000,0,0.300000011921,-10,0,0.316709041595,-0.00591187085956,28
525908000000,36840,525908000000,0,0.300000011921,-11,0,0.356187880039,-0.00362067157403,39
525919000000,36841,525919000000,0,0.300000011921,-12,0,0.38140553236,0.00524710863829,45
525929000000,36842,525929000000,0,0.300000011921,-11,0,0.344272375107,-0.00196666875854,34
525939000000,36843,525939000000,0,0.300000011921,-11,0,0.350474059582,-0.00193068152294,28
525950000000,36844,525950000000,0,0.300000011921,-11,0,0.331480234861,-1.86553734238e-05,33
525961000000,36845,525961000000,0,0.300000011921,-12,0,0.365231573582,-0.00225001666695,40
525971000000,36846,525971000000,0,0.300000011921,-11,0,0.330181956291,0.000251448655035,37
525981000000,36847,525981000000,0,0.300000011921,-11,0,0.353559672832,0.0089392112568,31
525991000000,36848,525991000000,0,0.300000011921,-11,0,0.335616886616,0.000906901608687,29
526003000000,36849,526003000000,0,0.300000011921,-12,0,0.371457308531,0.00211325613782,47
526012000000,36850,526012000000,0,0.300000011921,-12,0,0.371134132147,-0.00155009771697,29
526022000000,36851,526022000000,0,0.300000011921,-10,0,0.323123753071,0.00508537888527,24
526033000000,36852,526033000000,0,0.300000011921,-12,0,0.370587587357,0.0024960632436,35
526044000000,36853,526044000000,0,0.300000011921,-10,0,0.326110601425,0.0156188448891,42
526054000000,36854,526054000000,0,0.300000011921,-11,0,0.358817994595,0.0076914858073,34
526065000000,36855,526065000000,0,0.300000011921,-10,0,0.321453988552,0.00229940097779,36
526075000000,36856,526075000000,0,0.300000011921,-11,0,0.356805503368,-0.0059074126184,38
526086000000,36857,526086000000,0,0.300000011921,-11,0,0.348768234253,-0.0028598071076,45
526096000000,36858,526096000000,0,0.300000011921,-11,0,0.334930300713,0.00166993867606,39
526106000000,36859,526106000000,0,0.300000011921,-11,0,0.34470692277,0.0102821094915,33
526117000000,36860,526117000000,0,0.300000011921,-10,0,0.32866871357,-0.00203933799639,43
526128000000,36861,526128000000,0,0.300000011921,-10,0,0.325213015079,-0.0222475863993,43
526138000000,36862,526138000000,0,0.300000011921,-11,0,0.332352697849,0.000665415427648,44
526149000000,36863,526149000000,0,0.300000011921,-11,0,0.347461819649,0.00493483105674,38
526158000000,36864,526158000000,0,0.300000011921,-12,0,0.370975136757,0.00228805653751,33
526170000000,36865,526170000000,0,0.300000011921,-10,0,0.32565587759,-0.00537413265556,46
526179000000,36866,526179000000,0,0.300000011921,-11,0,0.348970025778,0.00137218693271,32
526189000000,36867,526189000000,0,0.300000011921,-9,0,0.299782574177,0.000804498034995,28
526200000000,36868,526200000000,0,0.300000011921,-12,0,0.366661250591,0.000615669763647,38
526211000000,36869,526211000000,0,0.300000011921,-10,0,0.329425871372,-0.000405311177019,44
526221000000,36870,526221000000,0,0.300000011921,-11,0,0.354074299335,-0.00251944782212,36
526232000000,36871,526232000000,0,0.300000011921,-10,0,0.317867994308,0.00378599646501,45
526243000000,36872,526243000000,0,0.300000011921,-12,0,0.380479216576,8.91523886821e-05,44
526253000000,36873,526253000000,0,0.300000011921,-12,0,0.367388427258,0.00267619779333,40
526263000000,36874,526263000000,0,0.300000011921,-11,0,0.337399244308,0.00541028520092,42
526274000000,36875,526274000000,0,0.300000011921,-11,0,0.349849402905,-0.00102930667344,41
526285000000,36876,526285000000,0,0.300000011921,-11,0,0.341396450996,-0.00446314457804,45
526295000000,36877,526295000000,0,0.300000011921,-12,0,0.371127724648,-0.0124002257362,45
526305000000,36878,526305000000,0,0.300000011921,-11,0,0.334050238132,0.00050464074593,34
526315000000,36879,526315000000,0,0.300000011921,-10,0,0.317700147629,0.000368940411136,40
526326000000,36880,526326000000,0,0.300000011921,-12,0,0.379601120949,0.00270681944676,47
526337000000,36881,526337000000,0,0.300000011921,-11,0,0.352096617222,0.0146726397797,47
526346000000,36882,526346000000,0,0.300000011921,-12,0,0.36089527607,0.00258598127402,35
526356000000,36883,526356000000,0,0.300000011921,-10,0,0.311850130558,0.00279318541288,30
526368000000,36884,526368000000,0,0.300000011921,-12,0,0.370846956968,-0.00224054418504,43
526378000000,36885,526378000000,0,0.300000011921,-11,0,0.339931547642,-0.00111517158803,42
526388000000,36886,526388000000,0,0.300000011921,-11,0,0.358384013176,0.00386516842991,35
526398000000,36887,526398000000,0,0.300000011921,-11,0,0.332446455956,-0.000523998576682,33
526410000000,36888,526410000000,0,0.300000011921,-12,0,0.385821044445,0.0034379393328,42
526420000000,36889,526420000000,0,0.300000011921,-11,0,0.351744890213,-0.0121564399451,46
526430000000,36890,526430000000,0,0.300000011921,-11,0,0.340589493513,-0.000521596928593,40
526441000000,36891,526441000000,0,0.300000011921,-11,0,0.357193052769,0.0032563128043,40
526451000000,36892,526451000000,0,0.300000011921,-11,0,0.34489569068,-9.57900192589e-06,41
526462000000,36893,526462000000,0,0.300000011921,-11,0,0.355967402458,0.010534433648,48
526472000000,36894,526472000000,0,0.300000011921,-11,0,0.341729313135,0.0028602774255,34
526482000000,36895,526482000000,0,0.300000011921,-11,0,0.350457489491,-0.00417159358039,29
526494000000,36896,526494000000,0,0.300000011921,-12,0,0.388701677322,-8.20983186713e-05,50
526503000000,36897,526503000000,0,0.300000011921,-11,0,0.339800745249,0.0006220752839,42
526513000000,36898,526513000000,0,0.300000011921,-11,0,0.351222157478,-0.00337624060921,34
526524000000,36899,526524000000,0,0.300000011921,-10,0,0.317559748888,0.00202600401826,32
526535000000,36900,526535000000,0,0.300000011921,-12,0,0.388378918171,-0.00290137156844,40
526544000000,36901,526544000000,0,0.300000011921,-11,0,0.336511135101,0.00769228721038,32
526555000000,36902,526555000000,0,0.300000011921,-11,0,0.34093362093,-0.00754875876009,33
526566000000,36903,526566000000,0,0.300000011921,-10,0,0.31784850359,-0.00173621077556,35
526577000000,36904,526577000000,0,0.300000011921,-12,0,0.386122822762,0.00109745329246,47
526588000000,36905,526588000000,0,0.300000011921,-12,0,0.371396362782,0.0016585085541,50
526597000000,36906,526597000000,0,0.300000011921,-10,0,0.326564788818,-0.00601441692561,37
526607000000,36907,526607000000,0,0.300000011921,-11,0,0.346498221159,-0.00308255944401,32
526619000000,36908,526619000000,0,0.300000011921,-11,0,0.354093670845,0.00198392034508,48
526629000000,36909,526629000000,0,0.300000011921,-12,0,0.366698741913,0.00856185611337,44
526639000000,36910,526639000000,0,0.300000011921,-10,0,0.312058627605,-0.000848074210808,39
526649000000,36911,526649000000,0,0.300000011921,-11,0,0.346325576305,-0.00122167891823,38
526660000000,36912,526660000000,0,0.300000011921,-12,0,0.376003682613,-0.0118024218827,41
526670000000,36913,526670000000,0,0.300000011921,-11,0,0.340931713581,0.00767777580768,41
526680000000,36914,526680000000,0,0.300000011921,-11,0,0.334129393101,-0.00611359113827,33
526691000000,36915,526691000000,0,0.300000011921,-10,0,0.315552294254,-0.00397492526099,41
526702000000,36916,526702000000,0,0.300000011921,-12,0,0.375737607479,-0.00283119338565,40
526712000000,36917,526712000000,0,0.300000011921,-11,0,0.340578973293,0.00292103784159,35
526722000000,36918,526722000000,0,0.300000011921,-11,0,0.344082087278,-0.00267361220904,36
526732000000,36919,526732000000,0,0.300000011921,-11,0,0.332176238298,0.000279270578176,25
526743000000,36920,526743000000,0,0.300000011921,-12,0,0.38501226902,0.000499213405419,38
526754000000,36921,526754000000,0,0.300000011921,-12,0,0.368213295937,0.00876072328538,43
526764000000,36922,526764000000,0,0.300000011921,-10,0,0.316278934479,0.00800703745335,35
526774000000,36923,526774000000,0,0.300000011921,-11,0,0.345815300941,0.00203058216721,35
526785000000,36924,526785000000,0,0.300000011921,-11,0,0.332768559456,-0.00168564356863,41
526795000000,36925,526795000000,0,0.300000011921,-12,0,0.363685131073,0.00309445895255,38
526805000000,36926,526805000000,0,0.300000011921,-9,0,0.289358615875,-0.0126975849271,31
526816000000,36927,526816000000,0,0.300000011921,-11,0,0.342882633209,-0.00320666586049,36
526827000000,36928,526827000000,0,0.300000011921,-12,0,0.379477471113,-0.00227951910347,40
526837000000,36929,526837000000,0,0.300000011921,-11,0,0.332685530186,0.00347839202732,38
526847000000,36930,526847000000,0,0.300000011921,-11,0,0.340558290482,0.00683570886031,33
526858000000,36931,526858000000,0,0.300000011921,-10,0,0.307472527027,-0.00275407941081,37
526869000000,36932,526869000000,0,0.300000011921,-12,0,0.379798710346,-0.00334851443768,44
526879000000,36933,526879000000,0,0.300000011921,-11,0,0.334300905466,-0.00183316343464,44
526888000000,36934,526888000000,0,0.300000011921,-11,0,0.354162812233,0.00308159342967,24
526900000000,36935,526900000000,0,0.300000011921,-10,0,0.316395640373,-0.00371882272884,36
526911000000,36936,526911000000,0,0.300000011921,-12,0,0.366503864527,-0.000913885713089,45
526921000000,36937,526921000000,0,0.300000011921,-12,0,0.372412860394,-0.00485853850842,39
526931000000,36938,526931000000,0,0.300000011921,-11,0,0.331467568874,0.000774852233008,37
526941000000,36939,526941000000,0,0.300000011921,-12,0,0.3620236516,-0.00104850740172,34
526952000000,36940,526952000000,0,0.300000011921,-11,0,0.330549716949,0.00102851435076,45
526962000000,36941,526962000000,0,0.300000011921,-12,0,0.383477419615,0.00404938310385,39
526973000000,36942,526973000000,0,0.300000011921,-11,0,0.333548426628,0.00649937056005,35
526983000000,36943,526983000000,0,0.300000011921,-11,0,0.357589751482,0.000221292197239,40
526994000000,36944,526994000000,0,0.300000011921,-12,0,0.38965266943,-0.0122787067667,43
527004000000,36945,527004000000,0,0.300000011921,-11,0,0.3500623703,-0.000724603654817,41
527015000000,36946,527015000000,0,0.300000011921,-12,0,0.3704675138,0.00702921766788,40
527025000000,36947,527025000000,0,0.300000011921,-11,0,0.339293301105,-0.00327861285768,37
527036000000,36948,527036000000,0,0.300000011921,-12,0,0.365788042545,0.000220353482291,44
527046000000,36949,527046000000,0,0.300000011921,-11,0,0.335441559553,0.000953016337007,39
527056000000,36950,527056000000,0,0.300000011921,-11,0,0.359616428614,0.0048751886934,33
527066000000,36951,527066000000,0,0.300000011921,-11,0,0.354164063931,0.000991179607809,34
