%time,field.header.seq,field.header.stamp,field.header.frame_id,field.ground_distance,field.flow_x,field.flow_y,field.velocity_x,field.velocity_y,field.quality
634015000000,47198,634015000000,0,0.300000011921,-10,0,0.327606678009,-0.00167212868109,36
634026000000,47199,634026000000,0,0.300000011921,-10,0,0.316793620586,-0.000522557762451,41
634036000000,47200,634036000000,0,0.300000011921,-10,0,0.311034500599,0.00774670904502,39
634047000000,47201,634047000000,0,0.300000011921,-9,0,0.286552190781,0.00627865642309,39
634057000000,47202,634057000000,0,0.300000011921,-11,0,0.332422018051,-0.000513817882165,33
634068000000,47203,634068000000,0,0.300000011921,-10,0,0.325392484665,-0.0103680770844,43
634078000000,47204,634078000000,0,0.300000011921,-10,0,0.313304275274,-0.00102105154656,35
634088000000,47205,634088000000,0,0.300000011921,-10,0,0.317810624838,0.00262755341828,32
634099000000,47206,634099000000,0,0.300000011921,-9,0,0.298186063766,4.15893046011e-05,36
634110000000,47207,634110000000,0,0.300000011921,-11,0,0.347352296114,0.0132784508169,40
634120000000,47208,634120000000,0,0.300000011921,-9,0,0.291053086519,0.000842248497065,45
634130000000,47209,634130000000,0,0.300000011921,-9,0,0.283665716648,-0.006349935662,36
634141000000,47210,634141000000,0,0.300000011921,-9,0,0.299807548523,0.00445542717353,42
634152000000,47211,634152000000,0,0.300000011921,-10,0,0.311975300312,-0.00517493672669,45
634162000000,47212,634162000000,0,0.300000011921,-10,0,0.305950164795,0.00448506418616,39
634172000000,47213,634172000000,0,0.300000011921,-9,0,0.276981592178,0.00450601894408,36
634183000000,47214,634183000000,0,0.300000011921,-11,0,0.332791566849,0.00222526118159,45
634193000000,47215,634193000000,0,0.300000011921,-9,0,0.292870044708,-0.00402618618682,41
634204000000,47216,634204000000,0,0.300000011921,-10,0,0.317259192467,0.000262940506218,48
634213000000,47217,634213000000,0,0.300000011921,-9,0,0.291276812553,0.00248739402741,30
634224000000,47218,634224000000,0,0.300000011921,-11,0,0.333765625954,0.000645050604362,38
634235000000,47219,634235000000,0,0.300000011921,-11,0,0.356004357338,0.00114989397116,47
634246000000,47220,634246000000,0,0.300000011921,-9,0,0.285625070333,-0.00126714806538,45
634256000000,47221,634256000000,0,0.300000011921,-10,0,0.311170250177,0.0066025275737,38
634266000000,47222,634266000000,0,0.300000011921,-10,0,0.313134789467,0.00532941147685,36
634277000000,47223,634277000000,0,0.300000011921,-10,0,0.329302966595,0.0123429298401,48
634287000000,47224,634287000000,0,0.300000011921,-9,0,0.287378102541,0.00417273817584,38
634297000000,47225,634297000000,0,0.300000011921,-10,0,0.31874102354,0.00327669735998,33
634308000000,47226,634308000000,0,0.300000011921,-10,0,0.313494503498,6.09477065154e-05,38
634319000000,47227,634319000000,0,0.300000011921,-11,0,0.351997822523,0.018556592986,42
634329000000,47228,634329000000,0,0.300000011921,-11,0,0.333232134581,0.000810029450804,41
634339000000,47229,634339000000,0,0.300000011921,-9,0,0.288905590773,-0.00508930068463,31
634350000000,47230,634350000000,0,0.300000011921,-11,0,0.353745639324,0.000446799589554,41
634360000000,47231,634360000000,0,0.300000011921,-10,0,0.319167554379,-0.000640314596239,40
634370000000,47232,634370000000,0,0.300000011921,-10,0,0.322452008724,0.0047972179018,34
634380000000,47233,634380000000,0,0.300000011921,-9,0,0.295132756233,0.00370435416698,31
634391000000,47234,634391000000,0,0.300000011921,-12,0,0.362087935209,0.00069617369445,38
634401000000,47235,634401000000,0,0.300000011921,-11,0,0.344796538353,0.0106778070331,34
634412000000,47236,634412000000,0,0.300000011921,-10,0,0.312067270279,0.000506308279,40
634422000000,47237,634422000000,0,0.300000011921,-11,0,0.339019328356,0.000185264681932,26
634433000000,47238,634433000000,0,0.300000011921,-11,0,0.34077423811,0.00226171454415,32
634443000000,47239,634443000000,0,0.300000011921,-11,0,0.330098748207,-0.0111170206219,37
634454000000,47240,634454000000,0,0.300000011921,-9,0,0.299375593662,-0.00114545261022,33
634464000000,47241,634464000000,0,0.300000011921,-11,0,0.343086183071,-0.00868635810912,31
634475000000,47242,634475000000,0,0.300000011921,-11,0,0.347768038511,-0.00169330148492,37
634485000000,47243,634485000000,0,0.300000011921,-12,0,0.361231833696,-0.00873294379562,40
634495000000,47244,634495000000,0,0.300000011921,-11,0,0.341379106045,0.00288763572462,31
634505000000,47245,634505000000,0,0.300000011921,-10,0,0.315881639719,0.00235704286024,24
634516000000,47246,634516000000,0,0.300000011921,-12,0,0.3842844069,-0.000325941247866,32
634527000000,47247,634527000000,0,0.300000011921,-11,0,0.33415517211,0.00864081643522,34
634537000000,47248,634537000000,0,0.300000011921,-11,0,0.35024574399,-0.0021808212623,29
634547000000,47249,634547000000,0,0.300000011921,-10,0,0.318777143955,0.00378217455,29
634558000000,47250,634558000000,0,0.300000011921,-12,0,0.384413868189,-0.00122822052799,37
634568000000,47251,634568000000,0,0.300000011921,-12,0,0.361668646336,-0.00145123666152,32
634579000000,47252,634579000000,0,0.300000011921,-10,0,0.32989063859,0.00857028737664,42
634590000000,47253,634590000000,0,0.300000011921,-11,0,0.347710072994,-0.00082104105968,44
634601000000,47254,634601000000,0,0.300000011921,-11,0,0.344351768494,0.00114473386202,50
634611000000,47255,634611000000,0,0.300000011921,-12,0,0.363802671432,-0.000986388185993,46
634621000000,47256,634621000000,0,0.300000011921,-10,0,0.32203489542,0.00250281440094,40
634631000000,47257,634631000000,0,0.300000011921,-11,0,0.339903712273,0.000756760709919,39
634642000000,47258,634642000000,0,0.300000011921,-11,0,0.357790112495,4.34872927144e-05,43
634653000000,47259,634653000000,0,0.300000011921,-12,0,0.371815979481,0.00544188637286,43
634662000000,47260,634662000000,0,0.300000011921,-11,0,0.342048108578,-0.00452736206353,36
634673000000,47261,634673000000,0,0.300000011921,-9,0,0.291521310806,-0.00533404294401,38
634684000000,47262,634684000000,0,0.300000011921,-12,0,0.381275713444,0.00320104183629,47
634695000000,47263,634695000000,0,0.300000011921,-11,0,0.334768086672,0.00800403766334,51
634704000000,47264,634704000000,0,0.300000011921,-10,0,0.317439138889,0.00203191721812,35
634715000000,47265,634715000000,0,0.300000011921,-10,0,0.308113634586,-0.00265102949925,35
634726000000,47266,634726000000,0,0.300000011921,-12,0,0.378631949425,-0.000576083781198,44
634736000000,47267,634736000000,0,0.300000011921,-12,0,0.379746377468,-0.00971834454685,36
634747000000,47268,634747000000,0,0.300000011921,-9,0,0.298334002495,-0.0159328877926,48
634757000000,47269,634757000000,0,0.300000011921,-11,0,0.348283737898,-0.00357988243923,42
634768000000,47270,634768000000,0,0.300000011921,-11,0,0.344383090734,-0.00436433823779,46
634778000000,47271,634778000000,0,0.300000011921,-12,0,0.387229114771,-0.0138838598505,40
634787000000,47272,634787000000,0,0.300000011921,-10,0,0.329566478729,-0.00367736909539,32
634798000000,47273,634798000000,0,0.300000011921,-11,0,0.351790010929,-0.00219949753955,33
634809000000,47274,634809000000,0,0.300000011921,-11,0,0.345669865608,-0.00208773673512,46
634819000000,47275,634819000000,0,0.300000011921,-12,0,0.371762037277,-0.00969423539937,37
634829000000,47276,634829000000,0,0.300000011921,-10,0,0.30903750658,0.0112591646612,36
634840000000,47277,634840000000,0,0.300000011921,-10,0,0.316889047623,-0.00184965715744,38
634851000000,47278,634851000000,0,0.300000011921,-11,0,0.354919791222,-0.00220806221478,46
634861000000,47279,634861000000,0,0.300000011921,-11,0,0.341549932957,0.00111187086441,41
634871000000,47280,634871000000,0,0.300000011921,-12,0,0.360775470734,-0.000231541926041,32
634882000000,47281,634882000000,0,0.300000011921,-10,0,0.316538333893,-0.000490439124405,35
634893000000,47282,634893000000,0,0.300000011921,-12,0,0.361454516649,-0.00531793106347,43
634903000000,47283,634903000000,0,0.300000011921,-12,0,0.362158238888,-0.00480031594634,40
634912000000,47284,634912000000,0,0.300000011921,-11,0,0.333726346493,-0.0132857374847,27
634923000000,47285,634923000000,0,0.300000011921,-11,0,0.343127310276,-0.00236480869353,29
634934000000,47286,634934000000,0,0.300000011921,-11,0,0.341431319714,-0.00319616729394,39
634945000000,47287,634945000000,0,0.300000011921,-11,0,0.350358873606,0.00495854299515,42
634954000000,47288,634954000000,0,0.300000011921,-10,0,0.308836102486,-0.0141266519204,32
634965000000,47289,634965000000,0,0.300000011921,-11,0,0.337428748608,0.00192059145775,38
634976000000,47290,634976000000,0,0.300000011921,-11,0,0.330302208662,0.00211309082806,42
634986000000,47291,634986000000,0,0.300000011921,-11,0,0.358278036118,-0.00832932814956,40
634996000000,47292,634996000000,0,0.300000011921,-11,0,0.33134111762,-0.018684213981,35
635007000000,47293,635007000000,0,0.300000011921,-10,0,0.303464353085,-0.00189952482469,36
635018000000,47294,635018000000,0,0.300000011921,-10,0,0.329766869545,0.00326182181016,48
635028000000,47295,635028000000,0,0.300000011921,-10,0,0.309183120728,0.00121903175022,44
635038000000,47296,635038000000,0,0.300000011921,-11,0,0.33564209938,-0.00748836901039,30
635049000000,47297,635049000000,0,0.300000011921,-10,0,0.307689398527,0.0009110137471,41
635060000000,47298,635060000000,0,0.300000011921,-11,0,0.338561028242,0.00696127302945,46
635069000000,47299,635069000000,0,0.300000011921,-11,0,0.335654377937,-0.00693812593818,35
635079000000,47300,635079000000,0,0.300000011921,-9,0,0.286125004292,-0.00148246739991,27
635090000000,47301,635090000000,0,0.300000011921,-10,0,0.323835551739,0.00680675916374,36
635101000000,47302,635101000000,0,0.300000011921,-9,0,0.286490380764,0.0137980626896,44
635111000000,47303,635111000000,0,0.300000011921,-10,0,0.321704626083,-0.0140295550227,36
635121000000,47304,635121000000,0,0.300000011921,-9,0,0.281414270401,-0.00572973582894,29
635133000000,47305,635133000000,0,0.300000011921,-10,0,0.327115535736,0.00245494232513,46
635143000000,47306,635143000000,0,0.300000011921,-9,0,0.297120928764,-0.00869034416974,43
635153000000,47307,635153000000,0,0.300000011921,-9,0,0.287275493145,-0.00691772019491,41
635163000000,47308,635163000000,0,0.300000011921,-9,0,0.284059286118,-0.00500328373164,33
635174000000,47309,635174000000,0,0.300000011921,-9,0,0.290702700615,0.00292135681957,36
635184000000,47310,635184000000,0,0.300000011921,-10,0,0.318891763687,-0.0215795300901,36
635195000000,47311,635195000000,0,0.300000011921,-9,0,0.284865617752,-0.0105172758922,37
635205000000,47312,635205000000,0,0.300000011921,-10,0,0.314397931099,-0.0129184117541,30
635216000000,47313,635216000000,0,0.300000011921,-9,0,0.290932357311,0.004638643004,37
635226000000,47314,635226000000,0,0.300000011921,-10,0,0.329184740782,-0.0159519799054,40
635236000000,47315,635236000000,0,0.300000011921,-10,0,0.300252437592,0.00447111669928,33
635246000000,47316,635246000000,0,0.300000011921,-9,0,0.284430235624,0.00197892868891,27
635258000000,47317,635258000000,0,0.300000011921,-10,0,0.318925321102,-0.00186622410547,39
635268000000,47318,635268000000,0,0.300000011921,-9,0,0.295353323221,0.000393459573388,44
635278000000,47319,635278000000,0,0.300000011921,-9,0,0.299331694841,0.00875852070749,33
635288000000,47320,635288000000,0,0.300000011921,-9,0,0.27751070261,0.00257574720308,31
635300000000,47321,635300000000,0,0.300000011921,-10,0,0.309773951769,0.00534352613613,42
635310000000,47322,635310000000,0,0.300000011921,-10,0,0.313450455666,-0.00637296307832,48
635320000000,47323,635320000000,0,0.300000011921,-9,0,0.281017273664,-0.00224275654182,40
635331000000,47324,635331000000,0,0.300000011921,-8,0,0.268026083708,0.00523688830435,37
635342000000,47325,635342000000,0,0.300000011921,-9,0,0.291181892157,0.00145875907037,46
635352000000,47326,635352000000,0,0.300000011921,-9,0,0.292429387569,-0.0150540461764,48
635362000000,47327,635362000000,0,0.300000011921,-8,0,0.264243304729,-0.00628281757236,41
635373000000,47328,635373000000,0,0.300000011921,-10,0,0.302726268768,0.0067108781077,42
635383000000,47329,635383000000,0,0.300000011921,-9,0,0.285411655903,-0.000512932543643,40
635393000000,47330,635393000000,0,0.300000011921,-10,0,0.323949813843,0.00443841796368,39
635403000000,47331,635403000000,0,0.300000011921,-9,0,0.295959979296,0.00210975157097,33
635413000000,47332,635413000000,0,0.300000011921,-9,0,0.281453073025,0.00646605528891,25
635425000000,47333,635425000000,0,0.300000011921,-10,0,0.327357113361,0.00540206022561,49
635435000000,47334,635435000000,0,0.300000011921,-9,0,0.29440253973,0.000306043308228,43
635445000000,47335,635445000000,0,0.300000011921,-10,0,0.308119595051,-0.00666144909337,37
635456000000,47336,635456000000,0,0.300000011921,-9,0,0.280495494604,-0.00839225202799,34
635467000000,47337,635467000000,0,0.300000011921,-10,0,0.328725397587,0.00433513196185,44
635477000000,47338,635477000000,0,0.300000011921,-11,0,0.334646701813,0.00408821087331,45
635487000000,47339,635487000000,0,0.300000011921,-9,0,0.273595422506,0.00274929427542,40
635498000000,47340,635498000000,0,0.300000011921,-9,0,0.289082437754,0.00385429314338,41
635509000000,47341,635509000000,0,0.300000011921,-9,0,0.29712086916,-0.00237043388188,50
635520000000,47342,635520000000,0,0.300000011921,-10,0,0.322104930878,-0.00961845554411,53
635529000000,47343,635529000000,0,0.300000011921,-9,0,0.27630251646,-0.00867661461234,39
635539000000,47344,635539000000,0,0.300000011921,-9,0,0.292270898819,-9.95883601718e-05,39
635550000000,47345,635550000000,0,0.300000011921,-10,0,0.311942875385,-0.00120834435802,46
635561000000,47346,635561000000,0,0.300000011921,-10,0,0.324964791536,-0.00879706069827,43
635570000000,47347,635570000000,0,0.300000011921,-10,0,0.302983105183,0.000636040058453,36
635581000000,47348,635581000000,0,0.300000011921,-9,0,0.275836259127,-0.00129934481811,34
635592000000,47349,635592000000,0,0.300000011921,-11,0,0.342318058014,-0.00571442721412,44
635603000000,47350,635603000000,0,0.300000011921,-9,0,0.29143935442,-0.0044494792819,46
635612000000,47351,635612000000,0,0.300000011921,-10,0,0.302396535873,0.00182118453085,37
635622000000,47352,635622000000,0,0.300000011921,-9,0,0.289643406868,0.00345258647576,33
635633000000,47353,635633000000,0,0.300000011921,-10,0,0.326851844788,0.00474516768008,36
635644000000,47354,635644000000,0,0.300000011921,-10,0,0.325303256512,0.0138670792803,42
635654000000,47355,635654000000,0,0.300000011921,-9,0,0.274141341448,0.0083524659276,35
635664000000,47356,635664000000,0,0.300000011921,-10,0,0.307998150587,-0.00115100818221,29
635675000000,47357,635675000000,0,0.300000011921,-10,0,0.309111297131,-0.00587535183877,39
635685000000,47358,635685000000,0,0.300000011921,-11,0,0.334668576717,-0.00287325959653,37
635696000000,47359,635696000000,0,0.300000011921,-9,0,0.284586548805,-0.00371453142725,35
635706000000,47360,635706000000,0,0.300000011921,-10,0,0.321629881859,-0.00341297918931,32
635717000000,47361,635717000000,0,0.300000011921,-10,0,0.327223718166,-0.000810468918644,43
635727000000,47362,635727000000,0,0.300000011921,-11,0,0.343074142933,0.00344224530272,37
635737000000,47363,635737000000,0,0.300000011921,-10,0,0.315726816654,0.00439843349159,30
635748000000,47364,635748000000,0,0.300000011921,-9,0,0.29956895113,0.000538623309694,36
635759000000,47365,635759000000,0,0.300000011921,-11,0,0.346667826176,-0.0100832860917,41
635769000000,47366,635769000000,0,0.300000011921,-10,0,0.315718114376,0.00286535173655,35
635779000000,47367,635779000000,0,0.300000011921,-10,0,0.322927176952,0.017469862476,33
635790000000,47368,635790000000,0,0.300000011921,-9,0,0.294766336679,0.000847862043884,34
635801000000,47369,635801000000,0,0.300000011921,-11,0,0.359805643559,0.00447985902429,42
635811000000,47370,635811000000,0,0.300000011921,-10,0,0.322711110115,7.70439510234e-05,41
635821000000,47371,635821000000,0,0.300000011921,-9,0,0.293424844742,-0.000851843738928,30
635831000000,47372,635831000000,0,0.300000011921,-10,0,0.317109972239,-0.00164383708034,35
635842000000,47373,635842000000,0,0.300000011921,-10,0,0.326105058193,0.00206637382507,39
635853000000,47374,635853000000,0,0.300000011921,-11,0,0.336187541485,0.00752877444029,40
635863000000,47375,635863000000,0,0.300000011921,-10,0,0.30018723011,0.00353388674557,39
635873000000,47376,635873000000,0,0.300000011921,-10,0,0.316199570894,-0.00124570040498,34
635884000000,47377,635884000000,0,0.300000011921,-10,0,0.325255274773,-0.00624676980078,43
635894000000,47378,635894000000,0,0.300000011921,-11,0,0.340708732605,0.013622100465,38
635904000000,47379,635904000000,0,0.300000011921,-10,0,0.322343111038,-0.000766353390645,29
635915000000,47380,635915000000,0,0.300000011921,-10,0,0.305702090263,-0.00362165970728,39
635926000000,47381,635926000000,0,0.300000011921,-11,0,0.343045413494,0.00720906723291,45
635936000000,47382,635936000000,0,0.300000011921,-9,0,0.296486496925,-0.00141026312485,39
635946000000,47383,635946000000,0,0.300000011921,-10,0,0.314208626747,0.0172789935023,30
635956000000,47384,635956000000,0,0.300000011921,-10,0,0.307312846184,-0.00620301626623,32
635968000000,47385,635968000000,0,0.300000011921,-11,0,0.353122502565,-0.00257426779717,43
635978000000,47386,635978000000,0,0.300000011921,-11,0,0.331862211227,0.00341790239327,41
635988000000,47387,635988000000,0,0.300000011921,-9,0,0.291185259819,0.00757714780048,33
635998000000,47388,635998000000,0,0.300000011921,-11,0,0.330938518047,0.000104300772364,36
636009000000,47389,636009000000,0,0.300000011921,-10,0,0.324338257313,1.21794873849e-05,43
636020000000,47390,636020000000,0,0.300000011921,-11,0,0.340800702572,0.00563034089282,43
636030000000,47391,636030000000,0,0.300000011921,-9,0,0.286795258522,0.0122924335301,36
636040000000,47392,636040000000,0,0.300000011921,-11,0,0.339685678482,0.00316223315895,36
636051000000,47393,636051000000,0,0.300000011921,-10,0,0.328923612833,0.00222214916721,46
636061000000,47394,636061000000,0,0.300000011921,-11,0,0.342460393906,-0.000245723873377,35
636071000000,47395,636071000000,0,0.300000011921,-11,0,0.343141138554,0.000462209049147,31
636083000000,47396,636083000000,0,0.300000011921,-10,0,0.306600272655,0.000966393214185,48
636093000000,47397,636093000000,0,0.300000011921,-12,0,0.367391526699,-0.0067998287268,49
636103000000,47398,636103000000,0,0.300000011921,-10,0,0.302616119385,-0.00109675200656,36
636113000000,47399,636113000000,0,0.300000011921,-10,0,0.326199144125,-0.00639472482726,36
636124000000,47400,636124000000,0,0.300000011921,-10,0,0.309762150049,0.00257106032223,39
636135000000,47401,636135000000,0,0.300000011921,-11,0,0.341596692801,0.00572800077498,48
636145000000,47402,636145000000,0,0.300000011921,-10,0,0.32254499197,-0.0117580434307,44
636154000000,47403,636154000000,0,0.300000011921,-10,0,0.30871373415,0.000448153965408,29
636166000000,47404,636166000000,0,0.300000011921,-11,0,0.33860757947,-0.00168705475517,40
636176000000,47405,636176000000,0,0.300000011921,-10,0,0.327270716429,0.00623266678303,41
636186000000,47406,636186000000,0,0.300000011921,-10,0,0.326337575912,0.00409643771127,34
636197000000,47407,636197000000,0,0.300000011921,-10,0,0.309291779995,0.000963173515629,41
636208000000,47408,636208000000,0,0.300000011921,-11,0,0.340748727322,0.00368723110296,43
636218000000,47409,636218000000,0,0.300000011921,-10,0,0.315897166729,-0.00601290538907,43
636228000000,47410,636228000000,0,0.300000011921,-10,0,0.320071011782,-0.00655976962298,37
636239000000,47411,636239000000,0,0.300000011921,-10,0,0.327822983265,0.000921461207327,43
636249000000,47412,636249000000,0,0.300000011921,-10,0,0.306503474712,0.00223022163846,41
636260000000,47413,636260000000,0,0.300000011921,-11,0,0.342411100864,-0.00389199960046,44
636270000000,47414,636270000000,0,0.300000011921,-9,0,0.280493617058,-0.0030593406409,40
636280000000,47415,636280000000,0,0.300000011921,-10,0,0.303752273321,0.00911747477949,39
636291000000,47416,636291000000,0,0.300000011921,-10,0,0.314527660608,-0.000346700078808,36
636302000000,47417,636302000000,0,0.300000011921,-10,0,0.324821829796,0.00917917210609,44
636312000000,47418,636312000000,0,0.300000011921,-10,0,0.31586381793,-0.000618452962954,38
636322000000,47419,636322000000,0,0.300000011921,-9,0,0.284261733294,0.00178993027657,31
636333000000,47420,636333000000,0,0.300000011921,-11,0,0.343351125717,0.00485534407198,42
636344000000,47421,636344000000,0,0.300000011921,-10,0,0.310064405203,0.0129590835422,46
636353000000,47422,636353000000,0,0.300000011921,-10,0,0.3111795187,-0.00277995783836,33
636364000000,47423,636364000000,0,0.300000011921,-9,0,0.28846898675,0.000263108639047,42
636374000000,47424,636374000000,0,0.300000011921,-11,0,0.336806863546,0.00226107728668,40
636385000000,47425,636385000000,0,0.300000011921,-10,0,0.305325597525,0.00221184245311,39
636395000000,47426,636395000000,0,0.300000011921,-10,0,0.314710199833,-0.0023995321244,36
636406000000,47427,636406000000,0,0.300000011921,-9,0,0.298681259155,0.00367974373512,39
636416000000,47428,636416000000,0,0.300000011921,-9,0,0.298908770084,0.00172381615266,42
636427000000,47429,636427000000,0,0.300000011921,-11,0,0.333410769701,0.000466950936243,44
636437000000,47430,636437000000,0,0.300000011921,-8,0,0.268208891153,0.00410648155957,42
636447000000,47431,636447000000,0,0.300000011921,-10,0,0.315970122814,-0.000444780685939,38
636458000000,47432,636458000000,0,0.300000011921,-10,0,0.318096280098,-0.00134301511571,42
636469000000,47433,636469000000,0,0.300000011921,-11,0,0.338641941547,0.00333530525677,53
636479000000,47434,636479000000,0,0.300000011921,-9,0,0.29785233736,-0.000512376776896,43
636489000000,47435,636489000000,0,0.300000011921,-9,0,0.276695162058,0.000535261060577,35
636500000000,47436,636500000000,0,0.300000011921,-10,0,0.329989552498,-1.62073374668e-05,50
636511000000,47437,636511000000,0,0.300000011921,-10,0,0.309963226318,0.00403317343444,46
636521000000,47438,636521000000,0,0.300000011921,-10,0,0.304197371006,0.00133881845977,34
636531000000,47439,636531000000,0,0.300000011921,-9,0,0.288507699966,-4.28834173363e-05,36
636542000000,47440,636542000000,0,0.300000011921,-11,0,0.352285981178,-0.00281273364089,41
636552000000,47441,636552000000,0,0.300000011921,-9,0,0.295311748981,0.00158800219651,47
636562000000,47442,636562000000,0,0.300000011921,-10,0,0.309292972088,0.00892782211304,39
636572000000,47443,636572000000,0,0.300000011921,-10,0,0.300492227077,0.00410593207926,33
636584000000,47444,636584000000,0,0.300000011921,-10,0,0.301359951496,-0.00176525278948,47
636594000000,47445,636594000000,0,0.300000011921,-11,0,0.332762598991,0.00804943405092,50
636604000000,47446,636604000000,0,0.300000011921,-9,0,0.281200170517,1.82903604582e-05,36
636614000000,47447,636614000000,0,0.300000011921,-10,0,0.320185124874,-0.000623779487796,37
636625000000,47448,636625000000,0,0.300000011921,-9,0,0.295693039894,0.00472360709682,41
636635000000,47449,636635000000,0,0.300000011921,-10,0,0.323695957661,0.00439348863438,41
636646000000,47450,636646000000,0,0.300000011921,-10,0,0.306838393211,0.00227440102026,32
636656000000,47451,636656000000,0,0.300000011921,-9,0,0.282149553299,-0.0036449606996,42
636667000000,47452,636667000000,0,0.300000011921,-11,0,0.34399831295,-0.000718635623343,43
636677000000,47453,636677000000,0,0.300000011921,-9,0,0.295020073652,-0.00114354467951,35
636688000000,47454,636688000000,0,0.300000011921,-10,0,0.302488654852,0.0114974798635,40
636698000000,47455,636698000000,0,0.300000011921,-9,0,0.286250501871,0.0022996631451,36
636708000000,47456,636708000000,0,0.300000011921,-11,0,0.347644388676,0.000598384416662,40
636720000000,47457,636720000000,0,0.300000011921,-10,0,0.313769340515,0.0071820570156,51
636729000000,47458,636729000000,0,0.300000011921,-9,0,0.277739316225,0.00461539486423,34
636739000000,47459,636739000000,0,0.300000011921,-10,0,0.303685247898,0.00344840111211,32
636750000000,47460,636750000000,0,0.300000011921,-10,0,0.30446511507,0.00869169365615,42
636761000000,47461,636761000000,0,0.300000011921,-10,0,0.317703545094,0.00753140589222,44
636771000000,47462,636771000000,0,0.300000011921,-9,0,0.289210915565,-0.00555317290127,37
636781000000,47463,636781000000,0,0.300000011921,-10,0,0.308696299791,-0.0015546460636,37
636793000000,47464,636793000000,0,0.300000011921,-10,0,0.317016363144,0.0102993389592,51
636802000000,47465,636802000000,0,0.300000011921,-10,0,0.323780864477,0.00141452276148,33
636813000000,47466,636813000000,0,0.300000011921,-10,0,0.311579316854,0.00905185099691,43
636823000000,47467,636823000000,0,0.300000011921,-9,0,0.28325843811,-0.00103556958493,37
636834000000,47468,636834000000,0,0.300000011921,-10,0,0.32913506031,0.00266883801669,42
636844000000,47469,636844000000,0,0.300000011921,-9,0,0.277537047863,-0.00565940747038,41
636855000000,47470,636855000000,0,0.300000011921,-10,0,0.305026948452,0.0113793173805,41
636865000000,47471,636865000000,0,0.300000011921,-9,0,0.28846102953,-0.00519387144595,41
636876000000,47472,636876000000,0,0.300000011921,-11,0,0.341383934021,-0.000469051476102,44
636887000000,47473,636887000000,0,0.300000011921,-9,0,0.299145638943,0.00138888147194,48
636895000000,47474,636895000000,0,0.300000011921,-9,0,0.289492607117,0.00639296602458,29
636906000000,47475,636906000000,0,0.300000011921,-10,0,0.307972073555,-0.00537292193621,35
636917000000,47476,636917000000,0,0.300000011921,-10,0,0.322485744953,-0.000924506224692,39
636928000000,47477,636928000000,0,0.300000011921,-10,0,0.314923942089,-0.000596683821641,45
636938000000,47478,636938000000,0,0.300000011921,-9,0,0.284020334482,-0.00201980746351,35
636948000000,47479,636948000000,0,0.300000011921,-10,0,0.320268034935,0.000189030484762,31
636959000000,47480,636959000000,0,0.300000011921,-9,0,0.297573953867,0.00135736295488,42
636970000000,47481,636970000000,0,0.300000011921,-10,0,0.304990947247,-0.00296779861674,43
636980000000,47482,636980000000,0,0.300000011921,-10,0,0.309607326984,0.00465619564056,39
636990000000,47483,636990000000,0,0.300000011921,-9,0,0.292671024799,-0.000457338057458,35
637001000000,47484,637001000000,0,0.300000011921,-10,0,0.30348777771,-0.00658413441852,47
637011000000,47485,637011000000,0,0.300000011921,-9,0,0.287185609341,0.00415376527235,39
637021000000,47486,637021000000,0,0.300000011921,-10,0,0.307314038277,0.0200297031552,32
637033000000,47487,637033000000,0,0.300000011921,-9,0,0.299076676369,0.00207406491973,47
637043000000,47488,637043000000,0,0.300000011921,-11,0,0.342142999172,0.0108464676887,52
637053000000,47489,637053000000,0,0.300000011921,-10,0,0.311495900154,-0.00305507099256,45
637063000000,47490,637063000000,0,0.300000011921,-9,0,0.288213551044,-0.00219550030306,40
637074000000,47491,637074000000,0,0.300000011921,-11,0,0.337172180414,-0.00366112077609,39
637085000000,47492,637085000000,0,0.300000011921,-10,0,0.305833011866,0.00558110745624,47
637094000000,47493,637094000000,0,0.300000011921,-10,0,0.307083487511,-0.000717171875294,38
637105000000,47494,637105000000,0,0.300000011921,-9,0,0.281752228737,-0.0005225953646,38
637115000000,47495,637115000000,0,0.300000011921,-10,0,0.325983405113,0.0028373375535,39
637126000000,47496,637126000000,0,0.300000011921,-10,0,0.30671775341,0.00102217996027,46
637137000000,47497,637137000000,0,0.300000011921,-10,0,0.302178263664,0.00490217795596,41
637147000000,47498,637147000000,0,0.300000011921,-10,0,0.315962970257,0.00257297744974,37
637158000000,47499,637158000000,0,0.300000011921,-9,0,0.292460292578,0.0027730690781,45
637168000000,47500,637168000000,0,0.300000011921,-11,0,0.334833562374,0.000683480058797,42
637178000000,47501,637178000000,0,0.300000011921,-8,0,0.264460235834,3.90446302845e-07,38
637189000000,47502,637189000000,0,0.300000011921,-10,0,0.30996671319,-6.85973209329e-05,41
637199000000,47503,637199000000,0,0.300000011921,-9,0,0.299636989832,0.000476788263768,41
637210000000,47504,637210000000,0,0.300000011921,-10,0,0.32828015089,0.00829459447414,48
637220000000,47505,637220000000,0,0.300000011921,-10,0,0.304547995329,-0.00738416658714,37
637230000000,47506,637230000000,0,0.300000011921,-9,0,0.285109221935,-0.00299758673646,39
637241000000,47507,637241000000,0,0.300000011921,-11,0,0.339385390282,0.00111834425479,38
637252000000,47508,637252000000,0,0.300000011921,-10,0,0.317264944315,0.0142762754112,46
637261000000,47509,637261000000,0,0.300000011921,-10,0,0.316870570183,-0.00302387820557,38
637271000000,47510,637271000000,0,0.300000011921,-9,0,0.294422000647,0.00342842936516,31
637283000000,47511,637283000000,0,0.300000011921,-11,0,0.342453896999,-0.00301998108625,48
637293000000,47512,637293000000,0,0.300000011921,-10,0,0.304430395365,-0.00100703618955,44
637304000000,47513,637304000000,0,0.300000011921,-10,0,0.309971511364,0.00533085409552,41
637313000000,47514,637313000000,0,0.300000011921,-10,0,0.329842925072,-0.00102113606408,34
637325000000,47515,637325000000,0,0.300000011921,-10,0,0.320980727673,-0.00238725589588,46
637335000000,47516,637335000000,0,0.300000011921,-11,0,0.338840007782,0.00303636537865,48
637345000000,47517,637345000000,0,0.300000011921,-9,0,0.283688098192,-0.00157326657791,42
637355000000,47518,637355000000,0,0.300000011921,-10,0,0.321922183037,0.00105620524846,37
637366000000,47519,637366000000,0,0.300000011921,-10,0,0.326757848263,0.00313506717794,44
637377000000,47520,637377000000,0,0.300000011921,-11,0,0.330307215452,9.27778019104e-05,42
637386000000,47521,637386000000,0,0.300000011921,-10,0,0.324609518051,-0.000780486501753,34
637397000000,47522,637397000000,0,0.300000011921,-9,0,0.289385855198,-0.00421267002821,42
637408000000,47523,637408000000,0,0.300000011921,-11,0,0.355653166771,-0.00104889681097,45
637418000000,47524,637418000000,0,0.300000011921,-10,0,0.312792778015,3.35119984811e-05,40
637429000000,47525,637429000000,0,0.300000011921,-10,0,0.312147289515,-0.00258246716112,41
637439000000,47526,637439000000,0,0.300000011921,-10,0,0.313264191151,-0.000582097331062,33
637449000000,47527,637449000000,0,0.300000011921,-12,0,0.371251016855,3.37630044669e-05,34
637460000000,47528,637460000000,0,0.300000011921,-10,0,0.318410694599,0.00303140864708,46
637470000000,47529,637470000000,0,0.300000011921,-10,0,0.31511759758,0.0193156469613,36
637480000000,47530,637480000000,0,0.300000011921,-11,0,0.33246409893,0.00182396813761,33
637491000000,47531,637491000000,0,0.300000011921,-11,0,0.342314273119,-0.00814693979919,38
637501000000,47532,637501000000,0,0.300000011921,-11,0,0.340304404497,0.00512431235984,37
637512000000,47533,637512000000,0,0.300000011921,-10,0,0.318268179893,-0.00609779637307,37
637522000000,47534,637522000000,0,0.300000011921,-11,0,0.333571255207,-0.00360921910033,34
637533000000,47535,637533000000,0,0.300000011921,-11,0,0.334997296333,0.00451311841607,40
637543000000,47536,637543000000,0,0.300000011921,-12,0,0.368853151798,0.0026002463419,40
637554000000,47537,637554000000,0,0.300000011921,-11,0,0.350117862225,0.0103394659236,37
637564000000,47538,637564000000,0,0.300000011921,-10,0,0.310160189867,-0.00649905018508,33
637574000000,47539,637574000000,0,0.300000011921,-12,0,0.387365579605,-7.73434294388e-05,36
637586000000,47540,637586000000,0,0.300000011921,-11,0,0.334053277969,0.00163027993403,43
637595000000,47541,637595000000,0,0.300000011921,-11,0,0.352210640907,-0.000273223733529,34
637605000000,47542,637605000000,0,0.300000011921,-10,0,0.314009726048,-0.00226905941963,28
637616000000,47543,637616000000,0,0.300000011921,-12,0,0.38018155098,-0.00695001613349,39
637627000000,47544,637627000000,0,0.300000011921,-10,0,0.324905604124,-0.00513935321942,44
637637000000,47545,637637000000,0,0.300000011921,-11,0,0.333709776402,0.00555621180683,37
637648000000,47546,637648000000,0,0.300000011921,-11,0,0.349441051483,0.000121934681374,42
637658000000,47547,637658000000,0,0.300000011921,-11,0,0.347276866436,0.00165542657487,40
637669000000,47548,637669000000,0,0.300000011921,-12,0,0.360780656338,-0.00208340887912,48
637678000000,47549,637678000000,0,0.300000011921,-10,0,0.304435014725,0.0140839731321,28
637689000000,47550,637689000000,0,0.300000011921,-10,0,0.32902187109,0.0027092017699,35
637700000000,47551,637700000000,0,0.300000011921,-11,0,0.348138868809,-0.00622168229893,42
637710000000,47552,637710000000,0,0.300000011921,-12,0,0.3605645895,-0.0120553858578,39
637721000000,47553,637721000000,0,0.300000011921,-10,0,0.324442356825,0.00456680729985,40
637731000000,47554,637731000000,0,0.300000011921,-10,0,0.307348519564,0.00212736334652,34
637742000000,47555,637742000000,0,0.300000011921,-12,0,0.372956454754,-7.69566977397e-05,44
637752000000,47556,637752000000,0,0.300000011921,-10,0,0.325106501579,-0.00126212020405,33
637762000000,47557,637762000000,0,0.300000011921,-10,0,0.323587834835,0.017030665651,32
637773000000,47558,637773000000,0,0.300000011921,-10,0,0.307504445314,0.00158043566626,36
637783000000,47559,637783000000,0,0.300000011921,-11,0,0.332459390163,0.000139732845128,40
637794000000,47560,637794000000,0,0.300000011921,-10,0,0.302083551884,0.00457477848977,37
637804000000,47561,637804000000,0,0.300000011921,-10,0,0.317817986012,-0.00348147982731,33
637815000000,47562,637815000000,0,0.300000011921,-10,0,0.328167766333,-0.00118482147809,42
637825000000,47563,637825000000,0,0.300000011921,-10,0,0.321464180946,-0.00191266136244,43
637836000000,47564,637836000000,0,0.300000011921,-11,0,0.333887457848,0.000754647538997,41
637845000000,47565,637845000000,0,0.300000011921,-10,0,0.309653788805,0.00604250654578,31
637856000000,47566,637856000000,0,0.300000011921,-10,0,0.325096786022,-0.00413412507623,36
637867000000,47567,637867000000,0,0.300000011921,-11,0,0.342807263136,-0.00955907814205,44
637877000000,47568,637877000000,0,0.300000011921,-11,0,0.35232925415,4.10014181398e-05,40
637887000000,47569,637887000000,0,0.300000011921,-11,0,0.33564004302,0.00594104267657,34
637898000000,47570,637898000000,0,0.300000011921,-9,0,0.299393892288,0.000892710057087,37
637909000000,47571,637909000000,0,0.300000011921,-9,0,0.280167996883,-0.0120220286772,40
637919000000,47572,637919000000,0,0.300000011921,-10,0,0.319107502699,0.00880283117294,36
637929000000,47573,637929000000,0,0.300000011921,-11,0,0.331202328205,0.00241097668186,34
637940000000,47574,637940000000,0,0.300000011921,-10,0,0.317601770163,-0.00166875426657,34
637950000000,47575,637950000000,0,0.300000011921,-11,0,0.351532906294,4.59796283394e-05,37
637961000000,47576,637961000000,0,0.300000011921,-10,0,0.306335687637,0.00441945530474,35
637970000000,47577,637970000000,0,0.300000011921,-11,0,0.342183053493,-0.00883600953966,28
637982000000,47578,637982000000,0,0.300000011921,-11,0,0.337635338306,0.000365310756024,38
637992000000,47579,637992000000,0,0.300000011921,-11,0,0.333380967379,0.0133794788271,36
638002000000,47580,638002000000,0,0.300000011921,-11,0,0.351306855679,0.0021852995269,34
638012000000,47581,638012000000,0,0.300000011921,-9,0,0.291425079107,0.0020997421816,30
638023000000,47582,638023000000,0,0.300000011921,-11,0,0.338646858931,-0.00054757547332,35
638035000000,47583,638035000000,0,0.300000011921,-9,0,0.299283772707,0.00926964823157,51
638044000000,47584,638044000000,0,0.300000011921,-11,0,0.33561706543,-0.00338345882483,34
638054000000,47585,638054000000,0,0.300000011921,-10,0,0.302677184343,0.00325465295464,33
638065000000,47586,638065000000,0,0.300000011921,-10,0,0.316497504711,-6.51608570479e-05,37
638076000000,47587,638076000000,0,0.300000011921,-10,0,0.304569482803,-0.0120354024693,40
638086000000,47588,638086000000,0,0.300000011921,-10,0,0.313657522202,-0.00124389480334,36
638096000000,47589,638096000000,0,0.300000011921,-11,0,0.331915229559,0.00411184784025,38
638106000000,47590,638106000000,0,0.300000011921,-10,0,0.314435124397,-0.00119899434503,30
638117000000,47591,638117000000,0,0.300000011921,-11,0,0.340297341347,0.00329173216596,36
638128000000,47592,638128000000,0,0.300000011921,-9,0,0.299836099148,0.00507736066356,35
638138000000,47593,638138000000,0,0.300000011921,-11,0,0.335296034813,0.00295017380267,35
638149000000,47594,638149000000,0,0.300000011921,-11,0,0.337349921465,0.00186523480806,40
638159000000,47595,638159000000,0,0.300000011921,-10,0,0.317681074142,0.00531560834497,39
638169000000,47596,638169000000,0,0.300000011921,-10,0,0.317964673042,-0.00320824095979,35
638179000000,47597,638179000000,0,0.300000011921,-10,0,0.305478930473,0.00800632778555,26
638190000000,47598,638190000000,0,0.300000011921,-11,0,0.338717073202,0.00432346714661,28
638201000000,47599,638201000000,0,0.300000011921,-10,0,0.314625263214,0.0078077991493,45
638211000000,47600,638211000000,0,0.300000011921,-10,0,0.304537117481,0.000559007865377,33
638221000000,47601,638221000000,0,0.300000011921,-10,0,0.32089471817,-0.00137251848355,31
638232000000,47602,638232000000,0,0.300000011921,-9,0,0.293719112873,0.000683940248564,38
638243000000,47603,638243000000,0,0.300000011921,-10,0,0.325313270092,-0.00527873635292,37
638252000000,47604,638252000000,0,0.300000011921,-9,0,0.276062071323,0.00307599129155,27
638263000000,47605,638263000000,0,0.300000011921,-10,0,0.309210121632,0.00217058323324,28
638274000000,47606,638274000000,0,0.300000011921,-10,0,0.306450098753,0.00100601476151,37
638284000000,47607,638284000000,0,0.300000011921,-9,0,0.296252369881,0.00472952798009,35
638295000000,47608,638295000000,0,0.300000011921,-10,0,0.307099759579,0.00446615973487,35
638305000000,47609,638305000000,0,0.300000011921,-9,0,0.290333688259,0.0069786272943,35
638315000000,47610,638315000000,0,0.300000011921,-11,0,0.342118561268,0.00379255204462,33
638326000000,47611,638326000000,0,0.300000011921,-9,0,0.299606710672,0.00364095228724,40
638336000000,47612,638336000000,0,0.300000011921,-10,0,0.311747193336,0.00839255470783,27
638346000000,47613,638346000000,0,0.300000011921,-9,0,0.298482716084,0.00446173641831,31
638357000000,47614,638357000000,0,0.300000011921,-11,0,0.339567065239,-0.0113491006196,36
638369000000,47615,638369000000,0,0.300000011921,-9,0,0.273642122746,-0.00603708950803,42
638378000000,47616,638378000000,0,0.300000011921,-10,0,0.319654196501,-0.00860656797886,34
638388000000,47617,638388000000,0,0.300000011921,-10,0,0.321018338203,0.000710183870979,29
638399000000,47618,638399000000,0,0.300000011921,-10,0,0.328840196133,-1.56095229613e-05,38
638410000000,47619,638410000000,0,0.300000011921,-11,0,0.34341982007,0.00694295484573,39
638419000000,47620,638419000000,0,0.300000011921,-10,0,0.303027331829,0.00197957153432,23
638430000000,47621,638430000000,0,0.300000011921,-10,0,0.310872554779,-0.00397308170795,30
638440000000,47622,638440000000,0,0.300000011921,-11,0,0.332675695419,1.75586901605e-05,32
638452000000,47623,638452000000,0,0.300000011921,-11,0,0.347793936729,0.00561730656773,48
638461000000,47624,638461000000,0,0.300000011921,-10,0,0.32278907299,0.00867620483041,24
638472000000,47625,638472000000,0,0.300000011921,-9,0,0.28958761692,0.00267886323854,36
638483000000,47626,638483000000,0,0.300000011921,-12,0,0.366791307926,0.00316650024615,42
638494000000,47627,638494000000,0,0.300000011921,-10,0,0.324735224247,-0.00173540925607,45
638503000000,47628,638503000000,0,0.300000011921,-10,0,0.302363097668,-0.00454958248883,35
638513000000,47629,638513000000,0,0.300000011921,-10,0,0.301741302013,-0.00209648441523,32
638524000000,47630,638524000000,0,0.300000011921,-12,0,0.374055117369,-0.000126128885313,37
638535000000,47631,638535000000,0,0.300000011921,-10,0,0.324934959412,0.0117625901476,40
638545000000,47632,638545000000,0,0.300000011921,-10,0,0.311782181263,-0.0156932715327,36
638555000000,47633,638555000000,0,0.300000011921,-11,0,0.331782758236,-0.00165884173475,34
638566000000,47634,638566000000,0,0.300000011921,-11,0,0.337571620941,-0.00285376841202,41
638577000000,47635,638577000000,0,0.300000011921,-12,0,0.360113680363,0.00120623025578,45
638586000000,47636,638586000000,0,0.300000011921,-10,0,0.309504926205,0.0033044484444,29
638597000000,47637,638597000000,0,0.300000011921,-11,0,0.336370497942,0.00133873918094,33
638608000000,47638,638608000000,0,0.300000011921,-11,0,0.346116602421,0.000862648012117,44
638619000000,47639,638619000000,0,0.300000011921,-12,0,0.372086524963,0.0103266369551,44
638629000000,47640,638629000000,0,0.300000011921,-11,0,0.337913036346,0.00956607796252,38
638639000000,47641,638639000000,0,0.300000011921,-10,0,0.301821112633,0.00249683763832,35
638650000000,47642,638650000000,0,0.300000011921,-12,0,0.369233310223,0.00366551219486,46
638660000000,47643,638660000000,0,0.300000011921,-9,0,0.299869716167,0.0198543537408,40
638671000000,47644,638671000000,0,0.300000011921,-10,0,0.326647937298,-0.00355266639963,41
638681000000,47645,638681000000,0,0.300000011921,-10,0,0.311810791492,0.00194790144451,42
638692000000,47646,638692000000,0,0.300000011921,-12,0,0.375515133142,-0.00230291578919,47
638702000000,47647,638702000000,0,0.300000011921,-10,0,0.3227904737,0.00121930986643,47
638711000000,47648,638711000000,0,0.300000011921,-11,0,0.339185118675,0.00491779716685,28
638723000000,47649,638723000000,0,0.300000011921,-10,0,0.325402677059,0.00180163513869,38
638733000000,47650,638733000000,0,0.300000011921,-11,0,0.331870645285,0.0022558895871,41
638744000000,47651,638744000000,0,0.300000011921,-11,0,0.359158724546,0.000472332787467,38
638753000000,47652,638753000000,0,0.300000011921,-10,0,0.319664895535,0.0159808155149,31
638764000000,47653,638764000000,0,0.300000011921,-11,0,0.339900612831,0.00164664897602,38
638775000000,47654,638775000000,0,0.300000011921,-11,0,0.351501047611,-0.00146871292964,45
638785000000,47655,638785000000,0,0.300000011921,-12,0,0.362175494432,-0.00368013442494,32
638795000000,47656,638795000000,0,0.300000011921,-11,0,0.338522911072,0.000397446216084,35
638806000000,47657,638806000000,0,0.300000011921,-10,0,0.316833257675,0.000386658735806,35
638817000000,47658,638817000000,0,0.300000011921,-12,0,0.379231512547,-0.00202503288165,47
638827000000,47659,638827000000,0,0.300000011921,-11,0,0.337912619114,-0.00182425021194,36
638837000000,47660,638837000000,0,0.300000011921,-11,0,0.341271519661,0.00607009790838,34
638848000000,47661,638848000000,0,0.300000011921,-11,0,0.334724724293,0.00121681019664,33
638860000000,47662,638860000000,0,0.300000011921,-12,0,0.370388031006,-0.00400164164603,48
638869000000,47663,638869000000,0,0.300000011921,-10,0,0.318325787783,-0.00256096501835,36
638879000000,47664,638879000000,0,0.300000011921,-11,0,0.344213604927,0.00147564872168,36
638890000000,47665,638890000000,0,0.300000011921,-11,0,0.344079762697,-0.000535928411409,45
638901000000,47666,638901000000,0,0.300000011921,-10,0,0.325833678246,0.0132698528469,48
638911000000,47667,638911000000,0,0.300000011921,-11,0,0.33494412899,-0.0126838115975,42
638921000000,47668,638921000000,0,0.300000011921,-11,0,0.335062146187,0.00266259280033,33
638931000000,47669,638931000000,0,0.300000011921,-11,0,0.34659409523,0.00259676482528,35
638942000000,47670,638942000000,0,0.300000011921,-10,0,0.315577149391,-0.000160063238582,41
638952000000,47671,638952000000,0,0.300000011921,-10,0,0.326554477215,-0.00123284815345,36
638962000000,47672,638962000000,0,0.300000011921,-11,0,0.340703129768,-0.00301900133491,26
638973000000,47673,638973000000,0,0.300000011921,-10,0,0.319582611322,0.001131757861,35
638984000000,47674,638984000000,0,0.300000011921,-10,0,0.328314304352,0.00643390836194,39
638994000000,47675,638994000000,0,0.300000011921,-10,0,0.308287203312,0.000849676318467,40
639005000000,47676,639005000000,0,0.300000011921,-10,0,0.306732535362,0.00740011734888,39
639015000000,47677,639015000000,0,0.300000011921,-10,0,0.314794659615,0.00111144769471,40
639026000000,47678,639026000000,0,0.300000011921,-11,0,0.331168353558,0.0118771092966,48
639036000000,47679,639036000000,0,0.300000011921,-9,0,0.273682594299,-0.000990554923192,35
639046000000,47680,639046000000,0,0.300000011921,-10,0,0.307480573654,-0.00892200134695,37
639057000000,47681,639057000000,0,0.300000011921,-10,0,0.322480738163,0.00167340796907,41
639068000000,47682,639068000000,0,0.300000011921,-10,0,0.306020379066,0.00108469917905,48
639077000000,47683,639077000000,0,0.300000011921,-9,0,0.290039032698,0.00404819147661,34
639088000000,47684,639088000000,0,0.300000011921,-9,0,0.281219124794,0.000158720649779,33
639099000000,47685,639099000000,0,0.300000011921,-10,0,0.308709681034,0.00103904644493,42
639110000000,47686,639110000000,0,0.300000011921,-9,0,0.294879615307,0.0017378552584,48
639119000000,47687,639119000000,0,0.300000011921,-9,0,0.284465193748,0.00142223061994,33
639129000000,47688,639129000000,0,0.300000011921,-9,0,0.289851933718,0.0034791151993,34
639141000000,47689,639141000000,0,0.300000011921,-9,0,0.273781120777,-0.000337233010214,43
639151000000,47690,639151000000,0,0.300000011921,-10,0,0.310179710388,0.00657421443611,46
639161000000,47691,639161000000,0,0.300000011921,-8,0,0.265391230583,-0.00106448843144,39
639171000000,47692,639171000000,0,0.300000011921,-9,0,0.281563401222,0.00304481480271,36
639182000000,47693,639182000000,0,0.300000011921,-9,0,0.280386984348,4.52196909464e-05,42
639193000000,47694,639193000000,0,0.300000011921,-10,0,0.318254828453,0.0102799823508,47
639203000000,47695,639203000000,0,0.300000011921,-8,0,0.25684133172,0.00124149094336,38
639213000000,47696,639213000000,0,0.300000011921,-9,0,0.279601573944,-0.00342447985895,35
639225000000,47697,639225000000,0,0.300000011921,-10,0,0.310120165348,-5.15469691891e-05,49
639234000000,47698,639234000000,0,0.300000011921,-9,0,0.287885665894,0.00101435871329,43
639244000000,47699,639244000000,0,0.300000011921,-9,0,0.274863898754,0.00703833950683,35
639255000000,47700,639255000000,0,0.300000011921,-8,0,0.259265184402,0.00314438948408,38
639266000000,47701,639266000000,0,0.300000011921,-10,0,0.303872704506,-0.00144414347596,48
639277000000,47702,639277000000,0,0.300000011921,-9,0,0.287593990564,0.00238333293237,49
639286000000,47703,639286000000,0,0.300000011921,-9,0,0.291782438755,-0.00177508872002,38
639297000000,47704,639297000000,0,0.300000011921,-9,0,0.283070385456,-0.00161701417528,37
639308000000,47705,639308000000,0,0.300000011921,-9,0,0.282025456429,0.000427484570537,43
639318000000,47706,639318000000,0,0.300000011921,-10,0,0.301110029221,0.00815412402153,47
639328000000,47707,639328000000,0,0.300000011921,-8,0,0.26452460885,-0.00131162570324,42
639339000000,47708,639339000000,0,0.300000011921,-9,0,0.287768304348,-0.00285170087591,40
639349000000,47709,639349000000,0,0.300000011921,-9,0,0.28280839324,0.00140069867484,43
639360000000,47710,639360000000,0,0.300000011921,-10,0,0.307145178318,0.00669097760692,42
639370000000,47711,639370000000,0,0.300000011921,-8,0,0.246652647853,0.00345835741609,46
639380000000,47712,639380000000,0,0.300000011921,-9,0,0.292397946119,0.00158707855735,36
639391000000,47713,639391000000,0,0.300000011921,-10,0,0.311675220728,-2.49997519859e-05,44
639402000000,47714,639402000000,0,0.300000011921,-9,0,0.289231091738,0.00372799066827,44
639411000000,47715,639411000000,0,0.300000011921,-8,0,0.267904281616,-0.00580407585949,31
639422000000,47716,639422000000,0,0.300000011921,-8,0,0.267296820879,0.0013698231196,39
639433000000,47717,639433000000,0,0.300000011921,-10,0,0.303294360638,0.00371145177633,45
639443000000,47718,639443000000,0,0.300000011921,-9,0,0.272450119257,0.0107966922224,44
639453000000,47719,639453000000,0,0.300000011921,-8,0,0.265172481537,-0.00670594582334,40
639464000000,47720,639464000000,0,0.300000011921,-9,0,0.27336537838,0.00212560617365,41
639475000000,47721,639475000000,0,0.300000011921,-9,0,0.288270920515,-0.00361494417302,46
639485000000,47722,639485000000,0,0.300000011921,-9,0,0.29276740551,0.00854439288378,44
639495000000,47723,639495000000,0,0.300000011921,-8,0,0.267899781466,0.0134728383273,36
639506000000,47724,639506000000,0,0.300000011921,-9,0,0.275281310081,0.00242384709418,40
639517000000,47725,639517000000,0,0.300000011921,-9,0,0.28882136941,0.00101339165121,49
639527000000,47726,639527000000,0,0.300000011921,-9,0,0.297547399998,0.00364747643471,45
639537000000,47727,639537000000,0,0.300000011921,-8,0,0.253445208073,0.00443650316447,43
639548000000,47728,639548000000,0,0.300000011921,-9,0,0.29075846076,0.00157002150081,46
639558000000,47729,639558000000,0,0.300000011921,-10,0,0.313306987286,-0.00588207971305,45
639569000000,47730,639569000000,0,0.300000011921,-9,0,0.275206238031,0.00295051955618,46
639579000000,47731,639579000000,0,0.300000011921,-9,0,0.292235225439,0.000640324084088,39
639589000000,47732,639589000000,0,0.300000011921,-9,0,0.270050436258,0.000532506965101,35
639600000000,47733,639600000000,0,0.300000011921,-10,0,0.319093585014,0.00390140339732,43
639610000000,47734,639610000000,0,0.300000011921,-9,0,0.282043457031,-0.00377087737434,43
639620000000,47735,639620000000,0,0.300000011921,-10,0,0.301729679108,0.00696868728846,38
639631000000,47736,639631000000,0,0.300000011921,-9,0,0.297320187092,0.00363680138253,37
639642000000,47737,639642000000,0,0.300000011921,-9,0,0.292629361153,0.000972674228251,49
639652000000,47738,639652000000,0,0.300000011921,-10,0,0.310991853476,0.00236486503854,44
639662000000,47739,639662000000,0,0.300000011921,-9,0,0.275894224644,0.00330345425755,41
639672000000,47740,639672000000,0,0.300000011921,-10,0,0.309747993946,0.00319048366509,37
639683000000,47741,639683000000,0,0.300000011921,-10,0,0.309380233288,-0.00277941115201,44
639693000000,47742,639693000000,0,0.300000011921,-10,0,0.31820294261,-0.0012409768533,36
639704000000,47743,639704000000,0,0.300000011921,-10,0,0.312387347221,0.00644084531814,43
639714000000,47744,639714000000,0,0.300000011921,-9,0,0.279726684093,8.27210242278e-05,39
639725000000,47745,639725000000,0,0.300000011921,-11,0,0.340912938118,0.00195658812299,46
639735000000,47746,639735000000,0,0.300000011921,-10,0,0.305193841457,0.00336384470575,38
639745000000,47747,639745000000,0,0.300000011921,-10,0,0.309796482325,0.00682059302926,33
639756000000,47748,639756000000,0,0.300000011921,-9,0,0.297190874815,0.000151855812874,34
639767000000,47749,639767000000,0,0.300000011921,-11,0,0.339854896069,-0.000276808976196,50
639778000000,47750,639778000000,0,0.300000011921,-9,0,0.299361467361,-0.00196692836471,49
639787000000,47751,639787000000,0,0.300000011921,-10,0,0.327227711678,-0.00174203864299,39
639798000000,47752,639798000000,0,0.300000011921,-11,0,0.330666869879,-0.000120922748465,42
639809000000,47753,639809000000,0,0.300000011921,-10,0,0.321517527103,-0.00167347420938,46
639819000000,47754,639819000000,0,0.300000011921,-10,0,0.326395899057,-0.0031619023066,44
639828000000,47755,639828000000,0,0.300000011921,-10,0,0.300603985786,-0.00111618917435,29
639839000000,47756,639839000000,0,0.300000011921,-11,0,0.334599465132,0.000641366932541,36
639850000000,47757,639850000000,0,0.300000011921,-10,0,0.326640546322,0.00552662089467,39
639860000000,47758,639860000000,0,0.300000011921,-11,0,0.342841684818,-0.00165536708664,40
639871000000,47759,639871000000,0,0.300000011921,-11,0,0.335575401783,0.00515548419207,40
639881000000,47760,639881000000,0,0.300000011921,-10,0,0.310450732708,0.000275923288427,37
639892000000,47761,639892000000,0,0.300000011921,-11,0,0.35732704401,-0.00458048516884,47
639903000000,47762,639903000000,0,0.300000011921,-10,0,0.320151299238,0.0010044304654,45
639913000000,47763,639913000000,0,0.300000011921,-11,0,0.330251991749,-0.00223189499229,39
639923000000,47764,639923000000,0,0.300000011921,-10,0,0.306143909693,0.000454785738839,37
639934000000,47765,639934000000,0,0.300000011921,-11,0,0.349136769772,0.00891873240471,50
639944000000,47766,639944000000,0,0.300000011921,-9,0,0.299066781998,0.000215185282286,41
639954000000,47767,639954000000,0,0.300000011921,-11,0,0.330734550953,0.00382890901528,35
639966000000,47768,639966000000,0,0.300000011921,-11,0,0.334272861481,-0.00253436155617,44
639975000000,47769,639975000000,0,0.300000011921,-10,0,0.302068203688,-0.0020219089929,43
639986000000,47770,639986000000,0,0.300000011921,-11,0,0.337193489075,0.00892029609531,41
639995000000,47771,639995000000,0,0.300000011921,-10,0,0.30101698637,0.00218201521784,31
640007000000,47772,640007000000,0,0.300000011921,-11,0,0.336975365877,-0.00106936704833,42
640018000000,47773,640018000000,0,0.300000011921,-10,0,0.30322945118,0.00126246758737,51
640028000000,47774,640028000000,0,0.300000011921,-10,0,0.323234081268,-0.00369372102432,44
640038000000,47775,640038000000,0,0.300000011921,-10,0,0.327417075634,0.00553544843569,40
640048000000,47776,640048000000,0,0.300000011921,-10,0,0.317572951317,-0.000129820778966,33
640059000000,47777,640059000000,0,0.300000011921,-11,0,0.353704184294,0.00294189481065,48
640069000000,47778,640069000000,0,0.300000011921,-10,0,0.310622006655,-0.00214160210453,42
640080000000,47779,640080000000,0,0.300000011921,-10,0,0.323505282402,0.00384018244222,39
640091000000,47780,640091000000,0,0.300000011921,-10,0,0.328728795052,0.000510911457241,42
640101000000,47781,640101000000,0,0.300000011921,-11,0,0.344518214464,0.00498545635492,45
640111000000,47782,640111000000,0,0.300000011921,-10,0,0.301736712456,-0.000248734955676,37
640121000000,47783,640121000000,0,0.300000011921,-10,0,0.31269416213,0.00481273932382,37
640131000000,47784,640131000000,0,0.300000011921,-11,0,0.354115903378,0.000801124668214,33
640142000000,47785,640142000000,0,0.300000011921,-10,0,0.320587962866,0.0113540841267,38
640153000000,47786,640153000000,0,0.300000011921,-10,0,0.321187019348,-0.00561480596662,42
640162000000,47787,640162000000,0,0.300000011921,-9,0,0.299613595009,0.00316525553353,26
640174000000,47788,640174000000,0,0.300000011921,-12,0,0.361480772495,2.25231706281e-05,40
640184000000,47789,640184000000,0,0.300000011921,-10,0,0.313116014004,0.00572369899601,42
640194000000,47790,640194000000,0,0.300000011921,-10,0,0.312789559364,0.002401269041,38
640205000000,47791,640205000000,0,0.300000011921,-10,0,0.303430974483,-0.011777119711,39
640215000000,47792,640215000000,0,0.300000011921,-10,0,0.308235168457,-0.00118173332885,37
640226000000,47793,640226000000,0,0.300000011921,-11,0,0.341213047504,0.0123682031408,45
640236000000,47794,640236000000,0,0.300000011921,-9,0,0.279250860214,0.00395427737385,32
640246000000,47795,640246000000,0,0.300000011921,-10,0,0.320609033108,-0.001225132728,35
640257000000,47796,640257000000,0,0.300000011921,-10,0,0.311616301537,-0.00107879564166,38
640268000000,47797,640268000000,0,0.300000011921,-11,0,0.33155682683,0.0028320827987,45
640278000000,47798,640278000000,0,0.300000011921,-9,0,0.280850887299,-0.00197180174291,44
640288000000,47799,640288000000,0,0.300000011921,-10,0,0.30972468853,-0.00419552996755,32
640299000000,47800,640299000000,0,0.300000011921,-11,0,0.330769240856,-6.16070610704e-05,48
640309000000,47801,640309000000,0,0.300000011921,-10,0,0.301380485296,-0.00738422293216,40
640319000000,47802,640319000000,0,0.300000011921,-10,0,0.308129221201,0.0104093709961,35
640329000000,47803,640329000000,0,0.300000011921,-9,0,0.270787358284,-0.00175432791002,30
640341000000,47804,640341000000,0,0.300000011921,-11,0,0.354646861553,-0.00249953777529,48
640351000000,47805,640351000000,0,0.300000011921,-10,0,0.302402973175,0.000699907075614,45
640361000000,47806,640361000000,0,0.300000011921,-10,0,0.303556978703,-0.000175344059244,32
640371000000,47807,640371000000,0,0.300000011921,-10,0,0.304257750511,-0.0023588410113,28
640382000000,47808,640382000000,0,0.300000011921,-10,0,0.313580840826,-0.000564500805922,42
640393000000,47809,640393000000,0,0.300000011921,-10,0,0.309722304344,-0.00337927346118,45
640403000000,47810,640403000000,0,0.300000011921,-9,0,0.279420077801,0.0044050081633,36
640414000000,47811,640414000000,0,0.300000011921,-10,0,0.30260553956,-0.000395258161006,40
640424000000,47812,640424000000,0,0.300000011921,-10,0,0.309616029263,0.000468484009616,40
640435000000,47813,640435000000,0,0.300000011921,-10,0,0.321979880333,-0.00185585976578,48
640445000000,47814,640445000000,0,0.300000011921,-9,0,0.276698172092,-0.000948530738242,40
640455000000,47815,640455000000,0,0.300000011921,-10,0,0.317134052515,0.00132438435685,33
640466000000,47816,640466000000,0,0.300000011921,-11,0,0.338288605213,-4.24186291639e-05,49
640477000000,47817,640477000000,0,0.300000011921,-10,0,0.312810838223,-0.00168364972342,49
640487000000,47818,640487000000,0,0.300000011921,-10,0,0.305754840374,0.00749902101234,45
640497000000,47819,640497000000,0,0.300000011921,-9,0,0.281663954258,0.00177399301901,37
640508000000,47820,640508000000,0,0.300000011921,-11,0,0.334065556526,0.00130462530069,52
640518000000,47821,640518000000,0,0.300000011921,-10,0,0.30555921793,0.000656167219859,44
640528000000,47822,640528000000,0,0.300000011921,-10,0,0.302664250135,-0.00173299724702,30
640539000000,47823,640539000000,0,0.300000011921,-10,0,0.314742177725,-0.00217527919449,42
640549000000,47824,640549000000,0,0.300000011921,-10,0,0.314987391233,-0.000634430733044,42
640560000000,47825,640560000000,0,0.300000011921,-11,0,0.341655135155,0.000714068417437,41
640570000000,47826,640570000000,0,0.300000011921,-9,0,0.284958600998,-0.00487996544689,35
640582000000,47827,640582000000,0,0.300000011921,-10,0,0.306886047125,-0.000121001241496,47
640591000000,47828,640591000000,0,0.300000011921,-10,0,0.319547981024,-0.000329704198521,45
640602000000,47829,640602000000,0,0.300000011921,-11,0,0.332721412182,-0.000549832999241,46
640612000000,47830,640612000000,0,0.300000011921,-8,0,0.259703695774,-0.00737696001306,36
640622000000,47831,640622000000,0,0.300000011921,-10,0,0.306200951338,-0.00253290589899,38
640633000000,47832,640633000000,0,0.300000011921,-10,0,0.327544599771,-0.00694419350475,45
640644000000,47833,640644000000,0,0.300000011921,-10,0,0.307664424181,0.000498202163726,46
640653000000,47834,640653000000,0,0.300000011921,-9,0,0.287786573172,0.00212175445631,35
640664000000,47835,640664000000,0,0.300000011921,-9,0,0.293859571218,8.86278576218e-05,35
640675000000,47836,640675000000,0,0.300000011921,-11,0,0.337609827518,0.000421119155362,45
640685000000,47837,640685000000,0,0.300000011921,-9,0,0.279730379581,-0.00905599817634,36
640695000000,47838,640695000000,0,0.300000011921,-10,0,0.328236758709,0.00124662928283,34
640705000000,47839,640705000000,0,0.300000011921,-10,0,0.321099370718,-0.00128466670867,34
640716000000,47840,640716000000,0,0.300000011921,-10,0,0.318596541882,0.00877231080085,36
640726000000,47841,640726000000,0,0.300000011921,-11,0,0.338779091835,-0.00256233289838,35
640737000000,47842,640737000000,0,0.300000011921,-9,0,0.288584053516,0.00940198916942,35
640748000000,47843,640748000000,0,0.300000011921,-10,0,0.328948915005,0.000270765216555,40
640758000000,47844,640758000000,0,0.300000011921,-9,0,0.296419680119,-0.00413276767358,42
640769000000,47845,640769000000,0,0.300000011921,-10,0,0.319995880127,0.0106000425294,42
640779000000,47846,640779000000,0,0.300000011921,-9,0,0.288688540459,0.0123727358878,39
640789000000,47847,640789000000,0,0.300000011921,-10,0,0.322306334972,0.00241108913906,41
640799000000,47848,640799000000,0,0.300000011921,-12,0,0.363713979721,-0.00060895801289,36
640810000000,47849,640810000000,0,0.300000011921,-10,0,0.310206025839,0.00765868276358,43
640820000000,47850,640820000000,0,0.300000011921,-10,0,0.325554430485,0.0146250817925,28
640831000000,47851,640831000000,0,0.300000011921,-10,0,0.306614875793,0.00284411129542,43
640842000000,47852,640842000000,0,0.300000011921,-11,0,0.350699573755,0.010810771957,48
640852000000,47853,640852000000,0,0.300000011921,-9,0,0.289943277836,-0.0158362258226,36
640862000000,47854,640862000000,0,0.300000011921,-11,0,0.335979700089,0.00265093240887,37
640873000000,47855,640873000000,0,0.300000011921,-11,0,0.342764794827,-0.000524857488927,41
640884000000,47856,640884000000,0,0.300000011921,-10,0,0.327129781246,0.0054996451363,50
640893000000,47857,640893000000,0,0.300000011921,-11,0,0.359916687012,0.000718582596164,34
640903000000,47858,640903000000,0,0.300000011921,-10,0,0.316834628582,-0.00226284167729,30
640915000000,47859,640915000000,0,0.300000011921,-11,0,0.356031954288,0.00101784535218,42
640925000000,47860,640925000000,0,0.300000011921,-10,0,0.326985001564,0.0145691195503,42
640936000000,47861,640936000000,0,0.300000011921,-11,0,0.35235992074,1.12332918434e-05,42
