%time,field.header.seq,field.header.stamp,field.header.frame_id,field.ground_distance,field.flow_x,field.flow_y,field.velocity_x,field.velocity_y,field.quality
728117000000,56214,728117000000,0,0.300000011921,-11,0,0.334200412035,0.00292087276466,47
728127000000,56215,728127000000,0,0.300000011921,-10,0,0.318885356188,0.000249035889283,39
728137000000,56216,728137000000,0,0.300000011921,-9,0,0.282082617283,-0.00161110144109,34
728148000000,56217,728148000000,0,0.300000011921,-10,0,0.318912833929,-0.000628797919489,39
728158000000,56218,728158000000,0,0.300000011921,-10,0,0.309548258781,-0.000859537452925,42
728168000000,56219,728168000000,0,0.300000011921,-10,0,0.301619291306,0.0112766325474,37
728179000000,56220,728179000000,0,0.300000011921,-9,0,0.285462111235,-0.0089799631387,34
728189000000,56221,728189000000,0,0.300000011921,-10,0,0.320110797882,-2.88963201456e-05,38
728200000000,56222,728200000000,0,0.300000011921,-10,0,0.302118569613,0.00606038002297,43
728210000000,56223,728210000000,0,0.300000011921,-9,0,0.298135042191,0.000631475297268,38
728220000000,56224,728220000000,0,0.300000011921,-10,0,0.30760833621,0.00223767221905,30
728232000000,56225,728232000000,0,0.300000011921,-10,0,0.306483149529,0.00149382324889,48
728242000000,56226,728242000000,0,0.300000011921,-10,0,0.318781763315,-0.00448594382033,50
728252000000,56227,728252000000,0,0.300000011921,-9,0,0.272634208202,0.00212080776691,36
728262000000,56228,728262000000,0,0.300000011921,-10,0,0.312011778355,-0.00088449701434,32
728273000000,56229,728273000000,0,0.300000011921,-10,0,0.317228853703,0.000549329444766,45
728284000000,56230,728284000000,0,0.300000011921,-10,0,0.319635272026,0.000788490753621,48
728293000000,56231,728293000000,0,0.300000011921,-10,0,0.310819745064,0.00329692545347,32
728304000000,56232,728304000000,0,0.300000011921,-9,0,0.278752267361,0.00137330789585,34
728315000000,56233,728315000000,0,0.300000011921,-11,0,0.357806265354,0.00109896995127,45
728325000000,56234,728325000000,0,0.300000011921,-10,0,0.313263893127,0.00683383643627,44
728335000000,56235,728335000000,0,0.300000011921,-10,0,0.317255884409,0.0161029342562,31
728345000000,56236,728345000000,0,0.300000011921,-9,0,0.289312541485,-0.000730874657165,33
728357000000,56237,728357000000,0,0.300000011921,-11,0,0.338992297649,0.00796476658434,49
728367000000,56238,728367000000,0,0.300000011921,-10,0,0.305317282677,-0.00747261708602,39
728378000000,56239,728378000000,0,0.300000011921,-10,0,0.311133623123,0.0113208815455,45
728388000000,56240,728388000000,0,0.300000011921,-10,0,0.314660340548,0.000580692430958,39
728399000000,56241,728399000000,0,0.300000011921,-10,0,0.319011986256,0.00317985401489,51
728409000000,56242,728409000000,0,0.300000011921,-11,0,0.339845538139,0.00230433186516,45
728419000000,56243,728419000000,0,0.300000011921,-9,0,0.275578409433,0.00531372474506,33
728429000000,56244,728429000000,0,0.300000011921,-10,0,0.319964289665,0.00112016440835,39
728441000000,56245,728441000000,0,0.300000011921,-10,0,0.309057921171,0.000391416338971,48
728451000000,56246,728451000000,0,0.300000011921,-11,0,0.351290345192,0.00556008145213,44
728460000000,56247,728460000000,0,0.300000011921,-10,0,0.316532731056,0.00644282437861,35
728471000000,56248,728471000000,0,0.300000011921,-9,0,0.280329704285,-0.000874053279404,38
728482000000,56249,728482000000,0,0.300000011921,-11,0,0.356799900532,0.00228356872685,46
728493000000,56250,728493000000,0,0.300000011921,-10,0,0.309579074383,-0.00370717886835,45
728502000000,56251,728502000000,0,0.300000011921,-10,0,0.306827396154,0.00227136327885,30
728513000000,56252,728513000000,0,0.300000011921,-9,0,0.29637748003,0.000100480508991,38
728524000000,56253,728524000000,0,0.300000011921,-11,0,0.358246177435,0.00279951421544,47
728534000000,56254,728534000000,0,0.300000011921,-10,0,0.328230679035,0.0039746016264,41
728544000000,56255,728544000000,0,0.300000011921,-9,0,0.287070274353,-0.00243615871295,36
728554000000,56256,728554000000,0,0.300000011921,-10,0,0.315400898457,0.000589152448811,35
728566000000,56257,728566000000,0,0.300000011921,-10,0,0.312410503626,-0.000358966179192,46
728576000000,56258,728576000000,0,0.300000011921,-10,0,0.329535722733,0.0144991409034,47
728586000000,56259,728586000000,0,0.300000011921,-9,0,0.288412630558,0.00565900467336,38
728596000000,56260,728596000000,0,0.300000011921,-10,0,0.312563210726,0.000813865568489,37
728607000000,56261,728607000000,0,0.300000011921,-10,0,0.311004042625,0.00613781763241,45
728618000000,56262,728618000000,0,0.300000011921,-11,0,0.330969393253,-0.00231695780531,44
728628000000,56263,728628000000,0,0.300000011921,-10,0,0.308816075325,0.00959464907646,47
728638000000,56264,728638000000,0,0.300000011921,-9,0,0.288570523262,0.00355018582195,33
728649000000,56265,728649000000,0,0.300000011921,-10,0,0.329703360796,-0.00306958239526,47
728659000000,56266,728659000000,0,0.300000011921,-9,0,0.294182837009,2.36622290686e-05,43
728669000000,56267,728669000000,0,0.300000011921,-9,0,0.297362059355,-0.00934324879199,37
728680000000,56268,728680000000,0,0.300000011921,-9,0,0.286302566528,0.00161626876798,41
728691000000,56269,728691000000,0,0.300000011921,-11,0,0.338752090931,-0.00362453004345,49
728701000000,56270,728701000000,0,0.300000011921,-9,0,0.287734657526,-0.0153630115092,44
728711000000,56271,728711000000,0,0.300000011921,-8,0,0.249412417412,0.012279799208,37
728721000000,56272,728721000000,0,0.300000011921,-10,0,0.317134708166,0.000247404153924,32
728733000000,56273,728733000000,0,0.300000011921,-9,0,0.281764417887,-0.00819452106953,50
728743000000,56274,728743000000,0,0.300000011921,-9,0,0.295318841934,0.00349426991306,44
728753000000,56275,728753000000,0,0.300000011921,-9,0,0.27656301856,0.00469404086471,36
728764000000,56276,728764000000,0,0.300000011921,-10,0,0.317719578743,-0.00361705571413,42
728775000000,56277,728775000000,0,0.300000011921,-9,0,0.284388303757,0.00678987149149,53
728785000000,56278,728785000000,0,0.300000011921,-9,0,0.293487429619,-0.00100586516783,44
728794000000,56279,728794000000,0,0.300000011921,-9,0,0.294843256474,0.00133855699096,33
728805000000,56280,728805000000,0,0.300000011921,-8,0,0.265482664108,0.000980364507996,42
728816000000,56281,728816000000,0,0.300000011921,-10,0,0.322142243385,-0.0115554044023,43
728826000000,56282,728826000000,0,0.300000011921,-9,0,0.278172671795,-0.000536511593964,42
728837000000,56283,728837000000,0,0.300000011921,-9,0,0.285859823227,-0.00398783944547,40
728847000000,56284,728847000000,0,0.300000011921,-9,0,0.281692147255,-0.000112057416118,35
728858000000,56285,728858000000,0,0.300000011921,-11,0,0.341368854046,-0.00268093077466,47
728868000000,56286,728868000000,0,0.300000011921,-9,0,0.297992438078,0.00291892932728,40
728878000000,56287,728878000000,0,0.300000011921,-8,0,0.261928915977,0.006901005283,33
728889000000,56288,728889000000,0,0.300000011921,-10,0,0.30927324295,-0.00102551758755,39
728899000000,56289,728899000000,0,0.300000011921,-9,0,0.294194102287,-0.000650930451229,41
728910000000,56290,728910000000,0,0.300000011921,-9,0,0.290434956551,-0.00173849891871,45
728920000000,56291,728920000000,0,0.300000011921,-8,0,0.254619508982,0.00208925805055,35
728931000000,56292,728931000000,0,0.300000011921,-10,0,0.317190229893,-0.00264675356448,40
728942000000,56293,728942000000,0,0.300000011921,-10,0,0.302177727222,0.00388625194319,49
728951000000,56294,728951000000,0,0.300000011921,-9,0,0.294464409351,0.00317906029522,38
728962000000,56295,728962000000,0,0.300000011921,-9,0,0.29420787096,-0.00193438748829,44
728973000000,56296,728973000000,0,0.300000011921,-9,0,0.282392263412,-0.000571662385482,43
728983000000,56297,728983000000,0,0.300000011921,-10,0,0.311458587646,-0.00390552240424,47
728993000000,56298,728993000000,0,0.300000011921,-9,0,0.273129224777,-0.000539919768926,44
729003000000,56299,729003000000,0,0.300000011921,-9,0,0.287731051445,-0.00603042542934,35
729014000000,56300,729014000000,0,0.300000011921,-9,0,0.295284628868,0.000961351848673,38
729025000000,56301,729025000000,0,0.300000011921,-10,0,0.314327776432,0.000395403942093,42
729035000000,56302,729035000000,0,0.300000011921,-9,0,0.296926051378,-0.000565433641896,37
729045000000,56303,729045000000,0,0.300000011921,-8,0,0.269418209791,-0.000421837030444,32
729055000000,56304,729055000000,0,0.300000011921,-10,0,0.310226261616,-6.8275781814e-05,34
729067000000,56305,729067000000,0,0.300000011921,-9,0,0.299783825874,0.00685830973089,48
729077000000,56306,729077000000,0,0.300000011921,-9,0,0.2906858325,0.00257560610771,44
729087000000,56307,729087000000,0,0.300000011921,-9,0,0.278013765812,-0.00275091500953,40
729098000000,56308,729098000000,0,0.300000011921,-10,0,0.316308498383,-1.51345739141e-05,41
729108000000,56309,729108000000,0,0.300000011921,-9,0,0.288132190704,-0.00542386248708,44
729118000000,56310,729118000000,0,0.300000011921,-10,0,0.30621522665,-0.00563260354102,38
729128000000,56311,729128000000,0,0.300000011921,-10,0,0.303072929382,-0.00128649920225,31
729139000000,56312,729139000000,0,0.300000011921,-9,0,0.291607201099,0.0010323622264,43
729150000000,56313,729150000000,0,0.300000011921,-10,0,0.317511320114,-0.00252465717494,46
729160000000,56314,729160000000,0,0.300000011921,-9,0,0.293956756592,0.000794845633209,42
729170000000,56315,729170000000,0,0.300000011921,-9,0,0.292966276407,-0.00100694003049,30
729182000000,56316,729182000000,0,0.300000011921,-9,0,0.296455651522,0.00128397531807,47
729192000000,56317,729192000000,0,0.300000011921,-11,0,0.330297410488,0.00792626291513,42
729202000000,56318,729202000000,0,0.300000011921,-9,0,0.294879078865,-0.00186987977941,36
729212000000,56319,729212000000,0,0.300000011921,-9,0,0.287753164768,0.00337522733025,33
729223000000,56320,729223000000,0,0.300000011921,-10,0,0.326251745224,0.00060085876612,47
729234000000,56321,729234000000,0,0.300000011921,-10,0,0.307874172926,0.013019698672,50
729243000000,56322,729243000000,0,0.300000011921,-10,0,0.303004801273,0.00320586562157,37
729254000000,56323,729254000000,0,0.300000011921,-9,0,0.273277819157,-0.00094984046882,40
729264000000,56324,729264000000,0,0.300000011921,-11,0,0.331877529621,0.000607588735875,37
729275000000,56325,729275000000,0,0.300000011921,-9,0,0.294952094555,0.00643122056499,38
729285000000,56326,729285000000,0,0.300000011921,-9,0,0.289062380791,0.00331369461492,34
729296000000,56327,729296000000,0,0.300000011921,-9,0,0.298670589924,0.00117771374062,40
729306000000,56328,729306000000,0,0.300000011921,-9,0,0.293472349644,-0.000286357477307,43
729317000000,56329,729317000000,0,0.300000011921,-10,0,0.326127529144,0.00304953870364,43
729327000000,56330,729327000000,0,0.300000011921,-8,0,0.262760400772,0.000881421787199,41
729337000000,56331,729337000000,0,0.300000011921,-10,0,0.304185509682,0.00618563313037,34
729349000000,56332,729349000000,0,0.300000011921,-9,0,0.291686654091,0.00115187442861,48
729359000000,56333,729359000000,0,0.300000011921,-11,0,0.330334067345,0.00769791845232,48
729369000000,56334,729369000000,0,0.300000011921,-10,0,0.310383200645,-0.000953429262154,45
729379000000,56335,729379000000,0,0.300000011921,-8,0,0.268406808376,-0.00105622969568,42
729390000000,56336,729390000000,0,0.300000011921,-10,0,0.328370898962,-0.00345809827559,47
729401000000,56337,729401000000,0,0.300000011921,-9,0,0.29446208477,-7.53563363105e-05,47
729411000000,56338,729411000000,0,0.300000011921,-10,0,0.304922878742,-0.000527536729351,40
729421000000,56339,729421000000,0,0.300000011921,-9,0,0.275887906551,0.00554398959503,41
729432000000,56340,729432000000,0,0.300000011921,-10,0,0.327502429485,-0.00209706975147,42
729442000000,56341,729442000000,0,0.300000011921,-9,0,0.297837853432,0.0158854071051,46
729453000000,56342,729453000000,0,0.300000011921,-9,0,0.298188090324,0.0015537715517,42
729462000000,56343,729462000000,0,0.300000011921,-9,0,0.29431027174,0.000772177765612,34
729474000000,56344,729474000000,0,0.300000011921,-9,0,0.295967578888,0.00052460108418,44
729485000000,56345,729485000000,0,0.300000011921,-10,0,0.326605379581,0.000742196571082,54
729494000000,56346,729494000000,0,0.300000011921,-8,0,0.268111914396,0.00582903204486,38
729505000000,56347,729505000000,0,0.300000011921,-10,0,0.300280094147,-0.0032659820281,42
729516000000,56348,729516000000,0,0.300000011921,-9,0,0.290712475777,0.00567470770329,49
729526000000,56349,729526000000,0,0.300000011921,-10,0,0.31221818924,-0.00715914182365,52
729536000000,56350,729536000000,0,0.300000011921,-9,0,0.295438289642,-0.000712425564416,42
729546000000,56351,729546000000,0,0.300000011921,-9,0,0.270449817181,-0.00111161137465,42
729557000000,56352,729557000000,0,0.300000011921,-10,0,0.328393995762,-0.00150933256373,48
729568000000,56353,729568000000,0,0.300000011921,-10,0,0.302270442247,-0.0083578042686,48
729578000000,56354,729578000000,0,0.300000011921,-9,0,0.296585828066,0.000494449632242,41
729589000000,56355,729589000000,0,0.300000011921,-9,0,0.281834244728,0.000396593211917,50
729599000000,56356,729599000000,0,0.300000011921,-11,0,0.346344977617,-1.38557516038e-06,43
729609000000,56357,729609000000,0,0.300000011921,-10,0,0.302184969187,0.00211966992356,45
729619000000,56358,729619000000,0,0.300000011921,-9,0,0.29361730814,-0.00329163018614,41
729630000000,56359,729630000000,0,0.300000011921,-9,0,0.29670420289,-0.010762498714,40
729641000000,56360,729641000000,0,0.300000011921,-9,0,0.286182701588,-0.0135731576011,44
729651000000,56361,729651000000,0,0.300000011921,-11,0,0.339262574911,-0.00244627241045,47
729661000000,56362,729661000000,0,0.300000011921,-9,0,0.291916042566,-0.00191485788673,41
729672000000,56363,729672000000,0,0.300000011921,-10,0,0.327070593834,0.000122910394566,37
729682000000,56364,729682000000,0,0.300000011921,-10,0,0.318284153938,0.000431103922892,45
729693000000,56365,729693000000,0,0.300000011921,-11,0,0.346419095993,0.00319624692202,42
729703000000,56366,729703000000,0,0.300000011921,-10,0,0.309522271156,0.00123927020468,36
729713000000,56367,729713000000,0,0.300000011921,-9,0,0.295679926872,0.000170670275111,35
729724000000,56368,729724000000,0,0.300000011921,-12,0,0.369951188564,0.000448632054031,42
729735000000,56369,729735000000,0,0.300000011921,-10,0,0.322348535061,2.50910125033e-05,47
729744000000,56370,729744000000,0,0.300000011921,-10,0,0.31756272912,-0.00128691166174,37
729755000000,56371,729755000000,0,0.300000011921,-10,0,0.306144237518,-0.000913098920137,43
729766000000,56372,729766000000,0,0.300000011921,-12,0,0.373953402042,0.000601111736614,43
729776000000,56373,729776000000,0,0.300000011921,-10,0,0.325194865465,0.00948010478169,42
729786000000,56374,729786000000,0,0.300000011921,-10,0,0.312616288662,0.00935819279402,30
729797000000,56375,729797000000,0,0.300000011921,-11,0,0.335549682379,-0.00231836177409,36
729808000000,56376,729808000000,0,0.300000011921,-10,0,0.328155398369,0.00798785127699,46
729817000000,56377,729817000000,0,0.300000011921,-11,0,0.35453042388,0.00136375473812,35
729828000000,56378,729828000000,0,0.300000011921,-9,0,0.299634337425,-0.0051314518787,33
729839000000,56379,729839000000,0,0.300000011921,-11,0,0.342516303062,-0.00096162490081,40
729849000000,56380,729849000000,0,0.300000011921,-11,0,0.342447370291,0.000891430128831,40
729859000000,56381,729859000000,0,0.300000011921,-12,0,0.36360502243,-0.00104952859692,35
729869000000,56382,729869000000,0,0.300000011921,-11,0,0.339663147926,0.00473605282605,34
729880000000,56383,729880000000,0,0.300000011921,-10,0,0.301997959614,0.00171999330632,40
729892000000,56384,729892000000,0,0.300000011921,-12,0,0.371262848377,-0.00462071225047,57
729902000000,56385,729902000000,0,0.300000011921,-10,0,0.329700231552,-0.000739984156098,57
729912000000,56386,729912000000,0,0.300000011921,-11,0,0.339760661125,-0.000724669254851,43
729922000000,56387,729922000000,0,0.300000011921,-10,0,0.321633636951,-3.03706674458e-05,45
729933000000,56388,729933000000,0,0.300000011921,-12,0,0.363053798676,0.00154748547357,47
729943000000,56389,729943000000,0,0.300000011921,-11,0,0.350847542286,-0.0036049396731,46
729953000000,56390,729953000000,0,0.300000011921,-10,0,0.312785327435,0.00945104286075,31
729964000000,56391,729964000000,0,0.300000011921,-11,0,0.336417138577,0.00640478078276,46
729974000000,56392,729974000000,0,0.300000011921,-11,0,0.331541538239,-0.00186318706255,38
729984000000,56393,729984000000,0,0.300000011921,-11,0,0.357651591301,0.0177719257772,37
729995000000,56394,729995000000,0,0.300000011921,-10,0,0.325099229813,-0.00545452535152,33
730005000000,56395,730005000000,0,0.300000011921,-11,0,0.357724845409,4.72220126539e-05,36
730016000000,56396,730016000000,0,0.300000011921,-10,0,0.308073490858,-0.0176605544984,43
730027000000,56397,730027000000,0,0.300000011921,-11,0,0.359820961952,-0.00579976243898,50
730037000000,56398,730037000000,0,0.300000011921,-11,0,0.349693179131,0.00158587587066,42
730047000000,56399,730047000000,0,0.300000011921,-10,0,0.31210282445,-0.000102920253994,40
730058000000,56400,730058000000,0,0.300000011921,-12,0,0.371405780315,0.00739775085822,46
730068000000,56401,730068000000,0,0.300000011921,-11,0,0.336020797491,0.00388477928936,43
730079000000,56402,730079000000,0,0.300000011921,-11,0,0.35327231884,-0.000957477896009,39
730089000000,56403,730089000000,0,0.300000011921,-11,0,0.33562296629,-0.0014807835687,38
730100000000,56404,730100000000,0,0.300000011921,-12,0,0.36933350563,-0.00578803056851,48
730110000000,56405,730110000000,0,0.300000011921,-11,0,0.356743276119,0.00164179189596,42
730120000000,56406,730120000000,0,0.300000011921,-10,0,0.31229326129,-0.0028923607897,36
730131000000,56407,730131000000,0,0.300000011921,-11,0,0.357422411442,-0.000749681261368,37
730141000000,56408,730141000000,0,0.300000011921,-11,0,0.345046848059,-0.000311712501571,40
730152000000,56409,730152000000,0,0.300000011921,-11,0,0.351201951504,0.00162386370357,45
730162000000,56410,730162000000,0,0.300000011921,-10,0,0.309040039778,0.00102502247319,36
730172000000,56411,730172000000,0,0.300000011921,-11,0,0.352950155735,0.00264769559726,34
730183000000,56412,730183000000,0,0.300000011921,-10,0,0.314619272947,0.00439705094323,43
730193000000,56413,730193000000,0,0.300000011921,-10,0,0.326442062855,-5.16677391715e-05,35
730203000000,56414,730203000000,0,0.300000011921,-11,0,0.331785261631,0.00217315088958,33
730215000000,56415,730215000000,0,0.300000011921,-10,0,0.302451014519,0.000907731242478,50
730225000000,56416,730225000000,0,0.300000011921,-11,0,0.341551214457,0.00640951283276,45
730235000000,56417,730235000000,0,0.300000011921,-9,0,0.28464704752,-5.28348027728e-05,41
730245000000,56418,730245000000,0,0.300000011921,-10,0,0.318661034107,-0.000934316311032,35
730256000000,56419,730256000000,0,0.300000011921,-9,0,0.297193825245,-4.84239171783e-05,44
730267000000,56420,730267000000,0,0.300000011921,-11,0,0.350612640381,0.00811520032585,48
730277000000,56421,730277000000,0,0.300000011921,-10,0,0.30174857378,7.22810509615e-05,42
730288000000,56422,730288000000,0,0.300000011921,-8,0,0.267091393471,0.0085748936981,43
730299000000,56423,730299000000,0,0.300000011921,-10,0,0.323083996773,-0.00139416626189,50
730309000000,56424,730309000000,0,0.300000011921,-9,0,0.293136447668,0.00572007987648,49
730319000000,56425,730319000000,0,0.300000011921,-9,0,0.274863451719,0.00360810314305,44
730329000000,56426,730329000000,0,0.300000011921,-9,0,0.274576872587,0.00268379831687,36
730339000000,56427,730339000000,0,0.300000011921,-10,0,0.30955862999,-0.00226646731608,37
730350000000,56428,730350000000,0,0.300000011921,-9,0,0.271120160818,0.00291101983748,45
730360000000,56429,730360000000,0,0.300000011921,-9,0,0.285970389843,0.00548879057169,37
730371000000,56430,730371000000,0,0.300000011921,-9,0,0.279370248318,-0.00307010207325,38
730381000000,56431,730381000000,0,0.300000011921,-9,0,0.282856106758,-0.00221115536988,42
730392000000,56432,730392000000,0,0.300000011921,-9,0,0.299522519112,0.00186844985001,47
730402000000,56433,730402000000,0,0.300000011921,-8,0,0.259952068329,0.000914648757316,35
730412000000,56434,730412000000,0,0.300000011921,-9,0,0.284246087074,-0.0018054159591,34
730423000000,56435,730423000000,0,0.300000011921,-9,0,0.27891933918,-2.95983154501e-05,46
730434000000,56436,730434000000,0,0.300000011921,-10,0,0.30401712656,-1.70281087009e-08,45
730444000000,56437,730444000000,0,0.300000011921,-8,0,0.267978727818,-0.000305430032313,39
730454000000,56438,730454000000,0,0.300000011921,-8,0,0.24005202949,0.00254279142246,31
730465000000,56439,730465000000,0,0.300000011921,-9,0,0.293740779161,7.22900294932e-05,39
730475000000,56440,730475000000,0,0.300000011921,-8,0,0.266865044832,0.00332666281611,44
730485000000,56441,730485000000,0,0.300000011921,-9,0,0.271970063448,0.00119169580285,37
730496000000,56442,730496000000,0,0.300000011921,-8,0,0.249670535326,-0.00324622052722,36
730507000000,56443,730507000000,0,0.300000011921,-10,0,0.301120907068,-0.000527720665559,43
730517000000,56444,730517000000,0,0.300000011921,-9,0,0.270959079266,0.0160131510347,44
730527000000,56445,730527000000,0,0.300000011921,-9,0,0.270496457815,-0.00024733832106,36
730537000000,56446,730537000000,0,0.300000011921,-9,0,0.272713780403,0.00170920556411,34
730549000000,56447,730549000000,0,0.300000011921,-9,0,0.273638963699,0.00109443778638,46
730559000000,56448,730559000000,0,0.300000011921,-10,0,0.310528516769,-0.00165105191991,40
730569000000,56449,730569000000,0,0.300000011921,-9,0,0.270180284977,-0.00111142219976,43
730579000000,56450,730579000000,0,0.300000011921,-9,0,0.279625177383,-0.000233622064115,32
730590000000,56451,730590000000,0,0.300000011921,-9,0,0.285216599703,-0.000898698053788,44
730601000000,56452,730601000000,0,0.300000011921,-10,0,0.323042273521,0.0114602129906,50
730611000000,56453,730611000000,0,0.300000011921,-9,0,0.293094843626,-0.0032469779253,46
730621000000,56454,730621000000,0,0.300000011921,-8,0,0.260919690132,0.000581408385187,34
730632000000,56455,730632000000,0,0.300000011921,-10,0,0.319777369499,-4.90820384584e-05,39
730643000000,56456,730643000000,0,0.300000011921,-10,0,0.302172541618,0.00225676642731,47
730653000000,56457,730653000000,0,0.300000011921,-9,0,0.295993089676,0.00389786250889,40
730663000000,56458,730663000000,0,0.300000011921,-9,0,0.27499461174,-0.000293872260954,35
730674000000,56459,730674000000,0,0.300000011921,-11,0,0.344859838486,-0.00189907138702,47
730684000000,56460,730684000000,0,0.300000011921,-10,0,0.301402807236,0.0144166685641,46
730694000000,56461,730694000000,0,0.300000011921,-10,0,0.303152680397,0.00245438888669,38
730705000000,56462,730705000000,0,0.300000011921,-10,0,0.314734578133,-0.00114894495346,37
730715000000,56463,730715000000,0,0.300000011921,-10,0,0.304915308952,0.000468464160804,40
730726000000,56464,730726000000,0,0.300000011921,-11,0,0.338565260172,0.0123850181699,41
730736000000,56465,730736000000,0,0.300000011921,-9,0,0.283014893532,0.000612068048213,36
730746000000,56466,730746000000,0,0.300000011921,-10,0,0.305791646242,-0.00451765069738,38
730758000000,56467,730758000000,0,0.300000011921,-10,0,0.306499838829,-0.00135384127498,48
730768000000,56468,730768000000,0,0.300000011921,-10,0,0.325241625309,0.00641466630623,49
730778000000,56469,730778000000,0,0.300000011921,-10,0,0.308903425932,0.00536643853411,36
730788000000,56470,730788000000,0,0.300000011921,-9,0,0.27779391408,-0.000115818693303,35
730799000000,56471,730799000000,0,0.300000011921,-11,0,0.352341502905,-0.00232333666645,39
730810000000,56472,730810000000,0,0.300000011921,-10,0,0.310476571321,-0.00577683979645,45
730819000000,56473,730819000000,0,0.300000011921,-10,0,0.309425115585,0.00529741263017,29
730830000000,56474,730830000000,0,0.300000011921,-9,0,0.294312268496,0.00010867974197,37
730841000000,56475,730841000000,0,0.300000011921,-11,0,0.337818652391,0.00100055814255,44
730851000000,56476,730851000000,0,0.300000011921,-10,0,0.318429946899,-0.000739826995414,41
730861000000,56477,730861000000,0,0.300000011921,-10,0,0.308440595865,0.00544880423695,32
730871000000,56478,730871000000,0,0.300000011921,-10,0,0.322536051273,-0.00259682466276,33
730883000000,56479,730883000000,0,0.300000011921,-10,0,0.317652225494,0.00290520163253,51
730893000000,56480,730893000000,0,0.300000011921,-11,0,0.333159863949,0.00629125488922,44
730904000000,56481,730904000000,0,0.300000011921,-9,0,0.285979568958,0.00371702597477,42
730913000000,56482,730913000000,0,0.300000011921,-10,0,0.313370347023,0.00130406953394,37
730924000000,56483,730924000000,0,0.300000011921,-10,0,0.318616271019,-0.000738425762393,43
730935000000,56484,730935000000,0,0.300000011921,-10,0,0.326236605644,0.00166180287488,44
730945000000,56485,730945000000,0,0.300000011921,-10,0,0.312948703766,-0.00324330595322,40
730956000000,56486,730956000000,0,0.300000011921,-9,0,0.284156233072,0.000425804930273,43
730966000000,56487,730966000000,0,0.300000011921,-11,0,0.339389234781,0.00216465140693,44
730977000000,56488,730977000000,0,0.300000011921,-9,0,0.298879921436,-0.000560135638807,48
730986000000,56489,730986000000,0,0.300000011921,-10,-1,0.306274950504,0.0305179022253,33
730997000000,56490,730997000000,0,0.300000011921,-9,0,0.293613702059,0.000636013166513,37
731008000000,56491,731008000000,0,0.300000011921,-11,0,0.344995260239,0.00207181111909,42
731018000000,56492,731018000000,0,0.300000011921,-9,0,0.292059123516,0.0038405933883,42
731028000000,56493,731028000000,0,0.300000011921,-10,0,0.304047644138,0.00870203692466,34
731039000000,56494,731039000000,0,0.300000011921,-10,0,0.31746417284,-0.000853314530104,45
731050000000,56495,731050000000,0,0.300000011921,-10,0,0.305495619774,-0.00601343903691,46
731060000000,56496,731060000000,0,0.300000011921,-10,0,0.321215808392,0.00772859668359,47
731070000000,56497,731070000000,0,0.300000011921,-9,0,0.287110209465,-0.00201739976183,35
731081000000,56498,731081000000,0,0.300000011921,-10,0,0.307353824377,-0.00230018538423,44
731091000000,56499,731091000000,0,0.300000011921,-10,0,0.308986067772,0.0106577044353,45
731102000000,56500,731102000000,0,0.300000011921,-10,0,0.313110232353,-0.00202827434987,43
731112000000,56501,731112000000,0,0.300000011921,-10,0,0.30737438798,0.000635868054815,36
731122000000,56502,731122000000,0,0.300000011921,-9,0,0.279693633318,0.000236718507949,40
731133000000,56503,731133000000,0,0.300000011921,-11,0,0.335322082043,-1.28126230265e-05,46
731143000000,56504,731143000000,0,0.300000011921,-9,0,0.294224709272,-0.00104651716538,43
731153000000,56505,731153000000,0,0.300000011921,-10,0,0.30313539505,-0.00301076471806,32
731164000000,56506,731164000000,0,0.300000011921,-9,0,0.295306801796,0.00038296263665,38
731175000000,56507,731175000000,0,0.300000011921,-11,0,0.337937861681,-0.00163525773678,52
731185000000,56508,731185000000,0,0.300000011921,-9,0,0.275885224342,0.00277268816717,47
731195000000,56509,731195000000,0,0.300000011921,-10,0,0.30183544755,-0.00122542423196,37
731206000000,56510,731206000000,0,0.300000011921,-10,0,0.305770099163,-0.000922885257751,44
731217000000,56511,731217000000,0,0.300000011921,-10,0,0.315530776978,0.00289511727169,48
731227000000,56512,731227000000,0,0.300000011921,-10,0,0.308276176453,0.00903960224241,41
731236000000,56513,731236000000,0,0.300000011921,-9,0,0.276271522045,-0.003350130748,31
731247000000,56514,731247000000,0,0.300000011921,-10,0,0.329112052917,0.00192619778682,36
731258000000,56515,731258000000,0,0.300000011921,-9,0,0.296647787094,0.00807685032487,44
731268000000,56516,731268000000,0,0.300000011921,-9,0,0.295271575451,-0.00188342737965,40
731279000000,56517,731279000000,0,0.300000011921,-10,0,0.311858713627,-0.00761878956109,45
731289000000,56518,731289000000,0,0.300000011921,-9,0,0.290976881981,-0.000309026101604,38
731300000000,56519,731300000000,0,0.300000011921,-11,0,0.334141790867,0.00270479242317,46
731311000000,56520,731311000000,0,0.300000011921,-9,0,0.271642118692,0.000142860342748,46
731320000000,56521,731320000000,0,0.300000011921,-10,0,0.300549864769,0.0070825945586,38
731331000000,56522,731331000000,0,0.300000011921,-9,0,0.28548771143,0.00156391737983,40
731342000000,56523,731342000000,0,0.300000011921,-11,0,0.335851430893,0.00844517815858,43
731352000000,56524,731352000000,0,0.300000011921,-9,0,0.274972736835,0.00167368224356,39
731362000000,56525,731362000000,0,0.300000011921,-9,0,0.286451220512,0.00645808828995,38
731372000000,56526,731372000000,0,0.300000011921,-10,0,0.30382090807,-0.00260496838018,35
731384000000,56527,731384000000,0,0.300000011921,-10,0,0.30367654562,0.00105580221862,48
731394000000,56528,731394000000,0,0.300000011921,-9,0,0.289386034012,-0.00127287802752,38
731404000000,56529,731404000000,0,0.300000011921,-9,0,0.273674428463,0.00482817972079,39
731415000000,56530,731415000000,0,0.300000011921,-10,0,0.315786600113,0.000114070164273,45
731425000000,56531,731425000000,0,0.300000011921,-10,0,0.308105766773,0.0205923337489,41
731435000000,56532,731435000000,0,0.300000011921,-9,0,0.289262771606,-8.46106559038e-07,40
731446000000,56533,731446000000,0,0.300000011921,-9,0,0.295390188694,0.00242026243359,39
731457000000,56534,731457000000,0,0.300000011921,-9,0,0.28123408556,0.000640923739411,44
731467000000,56535,731467000000,0,0.300000011921,-11,0,0.335401177406,-0.000124271115055,45
731477000000,56536,731477000000,0,0.300000011921,-9,0,0.275379419327,0.00226070545614,40
731487000000,56537,731487000000,0,0.300000011921,-10,0,0.3050339818,-0.00324755208567,32
731499000000,56538,731499000000,0,0.300000011921,-9,0,0.291744560003,0.000843895133585,47
731509000000,56539,731509000000,0,0.300000011921,-10,0,0.329458028078,-0.000260552886175,46
731519000000,56540,731519000000,0,0.300000011921,-9,0,0.296127021313,0.00435072556138,37
731529000000,56541,731529000000,0,0.300000011921,-8,0,0.266327917576,0.000357519689715,33
731540000000,56542,731540000000,0,0.300000011921,-10,0,0.318739444017,0.00263301143423,43
731551000000,56543,731551000000,0,0.300000011921,-10,0,0.300789773464,0.0121083529666,44
731560000000,56544,731560000000,0,0.300000011921,-9,0,0.298592150211,-9.0423040092e-05,35
731570000000,56545,731570000000,0,0.300000011921,-9,0,0.28521707654,0.000520429690368,29
731581000000,56546,731581000000,0,0.300000011921,-10,0,0.322465896606,-6.68777502142e-05,38
731592000000,56547,731592000000,0,0.300000011921,-10,0,0.313624620438,-0.00526175834239,42
731602000000,56548,731602000000,0,0.300000011921,-9,0,0.28698861599,0.00128163851332,35
731613000000,56549,731613000000,0,0.300000011921,-9,0,0.299986481667,-0.000595637480728,36
731624000000,56550,731624000000,0,0.300000011921,-9,0,0.28493642807,0.00141584873199,44
731634000000,56551,731634000000,0,0.300000011921,-10,0,0.322354912758,0.007867006585,45
731644000000,56552,731644000000,0,0.300000011921,-8,0,0.266880810261,-2.64237169176e-05,42
731654000000,56553,731654000000,0,0.300000011921,-10,0,0.302172482014,0.00252377474681,36
731665000000,56554,731665000000,0,0.300000011921,-9,0,0.291106164455,-0.00281814718619,40
731675000000,56555,731675000000,0,0.300000011921,-10,0,0.313507020473,0.00727290241048,38
731686000000,56556,731686000000,0,0.300000011921,-9,0,0.298617839813,-0.00206350814551,40
731696000000,56557,731696000000,0,0.300000011921,-9,0,0.277649044991,0.005834906362,33
731707000000,56558,731707000000,0,0.300000011921,-10,0,0.322424590588,-0.000993569148704,45
731718000000,56559,731718000000,0,0.300000011921,-10,0,0.303520262241,0.0147285321727,45
731727000000,56560,731727000000,0,0.300000011921,-9,0,0.289611101151,-0.000725796038751,36
731738000000,56561,731738000000,0,0.300000011921,-9,0,0.27333343029,0.00372469471768,35
731748000000,56562,731748000000,0,0.300000011921,-10,0,0.311312198639,0.00119229161646,39
731759000000,56563,731759000000,0,0.300000011921,-9,0,0.299902230501,-0.00481721526012,41
731769000000,56564,731769000000,0,0.300000011921,-9,0,0.299623578787,0.00545222032815,29
731779000000,56565,731779000000,0,0.300000011921,-9,0,0.293788641691,-0.00134030496702,30
731790000000,56566,731790000000,0,0.300000011921,-9,0,0.29853951931,-0.00102485262323,38
731801000000,56567,731801000000,0,0.300000011921,-10,0,0.324578046799,0.00297476933338,40
731811000000,56568,731811000000,0,0.300000011921,-9,0,0.271270573139,0.0016499463236,42
731821000000,56569,731821000000,0,0.300000011921,-10,0,0.304157584906,0.00117021519691,37
731832000000,56570,731832000000,0,0.300000011921,-10,0,0.301495790482,-0.00243532308377,44
731843000000,56571,731843000000,0,0.300000011921,-10,0,0.303028583527,0.00503762159497,43
731852000000,56572,731852000000,0,0.300000011921,-9,0,0.294387847185,0.00194912869483,35
731864000000,56573,731864000000,0,0.300000011921,-8,0,0.26919066906,-0.000245641218498,44
731874000000,56574,731874000000,0,0.300000011921,-10,0,0.322725743055,0.000681589124724,44
731884000000,56575,731884000000,0,0.300000011921,-9,0,0.29715192318,-0.000816558371298,42
731894000000,56576,731894000000,0,0.300000011921,-9,0,0.295392453671,0.000900536717381,38
731905000000,56577,731905000000,0,0.300000011921,-9,0,0.276736974716,-0.000583825923968,42
731915000000,56578,731915000000,0,0.300000011921,-10,0,0.313992798328,0.00167367421091,39
731926000000,56579,731926000000,0,0.300000011921,-9,0,0.294085741043,1.77645563326e-06,44
731937000000,56580,731937000000,0,0.300000011921,-9,0,0.294316738844,0.00546167325228,42
731947000000,56581,731947000000,0,0.300000011921,-9,0,0.2996699512,0.000125939550344,41
731957000000,56582,731957000000,0,0.300000011921,-9,0,0.293449699879,-0.00605268124491,40
731968000000,56583,731968000000,0,0.300000011921,-10,0,0.317417085171,0.00297516793944,44
731978000000,56584,731978000000,0,0.300000011921,-9,0,0.282099068165,0.012884831056,37
731988000000,56585,731988000000,0,0.300000011921,-10,0,0.30372607708,-0.000532274134457,31
731999000000,56586,731999000000,0,0.300000011921,-10,0,0.300723642111,-0.00129784387536,38
732010000000,56587,732010000000,0,0.300000011921,-10,0,0.327387362719,0.00416188174859,37
732019000000,56588,732019000000,0,0.300000011921,-9,0,0.285452187061,0.00597651582211,30
732030000000,56589,732030000000,0,0.300000011921,-9,0,0.280220746994,0.000117187468277,30
732041000000,56590,732041000000,0,0.300000011921,-11,0,0.337338507175,0.000640753365587,40
732051000000,56591,732051000000,0,0.300000011921,-9,0,0.297607004642,0.000356940552592,37
732061000000,56592,732061000000,0,0.300000011921,-10,0,0.304997384548,-0.000957211479545,36
732071000000,56593,732071000000,0,0.300000011921,-9,0,0.279135465622,-0.00175148667768,28
732082000000,56594,732082000000,0,0.300000011921,-11,0,0.3391020298,-0.00245833490044,36
732093000000,56595,732093000000,0,0.300000011921,-9,0,0.299495816231,0.0212734043598,43
732103000000,56596,732103000000,0,0.300000011921,-10,0,0.301204562187,0.00898885447532,30
732113000000,56597,732113000000,0,0.300000011921,-10,0,0.310991346836,0.000672624388244,31
732125000000,56598,732125000000,0,0.300000011921,-10,0,0.303498148918,-0.000519784283824,45
732135000000,56599,732135000000,0,0.300000011921,-10,0,0.323325276375,-0.00511484965682,43
732144000000,56600,732144000000,0,0.300000011921,-9,0,0.270230829716,-0.00585118960589,28
732155000000,56601,732155000000,0,0.300000011921,-10,0,0.312012851238,-0.00089038599981,36
732166000000,56602,732166000000,0,0.300000011921,-9,0,0.294217586517,-0.00449110893533,45
732177000000,56603,732177000000,0,0.300000011921,-11,0,0.334892600775,-0.00620788661763,49
732186000000,56604,732186000000,0,0.300000011921,-10,0,0.30071657896,0.00974694546312,30
732197000000,56605,732197000000,0,0.300000011921,-9,0,0.275870025158,0.00163117528427,31
732208000000,56606,732208000000,0,0.300000011921,-11,0,0.335881590843,0.00473198713735,48
732218000000,56607,732218000000,0,0.300000011921,-9,0,0.298814356327,0.00828986801207,40
732228000000,56608,732228000000,0,0.300000011921,-10,0,0.309926867485,0.00752318371087,33
732239000000,56609,732239000000,0,0.300000011921,-9,0,0.281381905079,-0.000896899669897,35
732249000000,56610,732249000000,0,0.300000011921,-10,0,0.329306542873,0.00527696730569,39
732261000000,56611,732261000000,0,0.300000011921,-9,0,0.294741094112,0.0103220092133,49
732270000000,56612,732270000000,0,0.300000011921,-10,0,0.313204526901,0.00146639265586,31
732281000000,56613,732281000000,0,0.300000011921,-10,0,0.306238055229,0.00358574907295,38
732291000000,56614,732291000000,0,0.300000011921,-10,0,0.309853434563,9.24264168134e-05,40
732301000000,56615,732301000000,0,0.300000011921,-10,0,0.308054685593,0.0019302284345,36
732311000000,56616,732311000000,0,0.300000011921,-9,0,0.285617977381,-0.00326802581549,29
732322000000,56617,732322000000,0,0.300000011921,-10,0,0.307534575462,0.0049639577046,31
732333000000,56618,732333000000,0,0.300000011921,-10,0,0.30389714241,0.00224753352813,38
732343000000,56619,732343000000,0,0.300000011921,-10,0,0.317677199841,0.00262932339683,38
732354000000,56620,732354000000,0,0.300000011921,-9,0,0.273076742887,0.00545134441927,45
732364000000,56621,732364000000,0,0.300000011921,-9,0,0.282058954239,0.0133994277567,36
732375000000,56622,732375000000,0,0.300000011921,-10,0,0.312672227621,-0.0107622649521,44
732385000000,56623,732385000000,0,0.300000011921,-9,0,0.289828598499,-0.00248431763612,40
732395000000,56624,732395000000,0,0.300000011921,-9,0,0.294798344374,0.00138860801235,34
732406000000,56625,732406000000,0,0.300000011921,-9,0,0.288724482059,5.29318276676e-05,38
732417000000,56626,732417000000,0,0.300000011921,-10,0,0.326912462711,0.00792733486742,46
732427000000,56627,732427000000,0,0.300000011921,-9,0,0.271918237209,-0.00119485007599,43
732437000000,56628,732437000000,0,0.300000011921,-9,0,0.286878198385,0.0114794708788,35
732447000000,56629,732447000000,0,0.300000011921,-10,0,0.305919647217,-0.000203178380616,36
732458000000,56630,732458000000,0,0.300000011921,-10,0,0.30571192503,4.00307726522e-05,38
732469000000,56631,732469000000,0,0.300000011921,-9,0,0.296561777592,-0.000549077289179,40
732478000000,56632,732478000000,0,0.300000011921,-9,0,0.287182182074,-0.00197474448942,30
732489000000,56633,732489000000,0,0.300000011921,-10,0,0.317470520735,-8.06206735433e-05,37
732500000000,56634,732500000000,0,0.300000011921,-9,0,0.287543296814,-0.0102522503585,45
732511000000,56635,732511000000,0,0.300000011921,-9,0,0.294593572617,0.000514778541401,43
732520000000,56636,732520000000,0,0.300000011921,-9,0,0.289948880672,0.0244440026581,31
732531000000,56637,732531000000,0,0.300000011921,-9,0,0.284686386585,0.0010667773895,37
732542000000,56638,732542000000,0,0.300000011921,-9,0,0.292822360992,-0.00126072345302,44
732552000000,56639,732552000000,0,0.300000011921,-9,0,0.27712136507,-0.00110686628614,37
732562000000,56640,732562000000,0,0.300000011921,-9,0,0.299479752779,-0.000375895644538,33
732573000000,56641,732573000000,0,0.300000011921,-9,0,0.292149782181,-1.10546825454e-05,39
732584000000,56642,732584000000,0,0.300000011921,-10,0,0.328442156315,-0.004590628203,42
732593000000,56643,732593000000,0,0.300000011921,-8,0,0.262438714504,0.00594750512391,32
732604000000,56644,732604000000,0,0.300000011921,-9,0,0.288844108582,0.000462839147076,36
732615000000,56645,732615000000,0,0.300000011921,-10,0,0.304325222969,0.000608420872595,40
732626000000,56646,732626000000,0,0.300000011921,-9,0,0.284193366766,-0.00170803279616,38
732636000000,56647,732636000000,0,0.300000011921,-9,0,0.292211592197,-0.0022406601347,41
732645000000,56648,732645000000,0,0.300000011921,-8,0,0.267325103283,-2.58259242401e-05,30
732656000000,56649,732656000000,0,0.300000011921,-10,0,0.309076249599,-0.00191028567497,35
732667000000,56650,732667000000,0,0.300000011921,-9,0,0.292241960764,0.00477525917813,39
732677000000,56651,732677000000,0,0.300000011921,-9,0,0.288645386696,-0.00055497646099,39
732688000000,56652,732688000000,0,0.300000011921,-9,0,0.292512953281,0.00153445824981,37
732698000000,56653,732698000000,0,0.300000011921,-9,0,0.285475492477,0.000422568467911,33
732709000000,56654,732709000000,0,0.300000011921,-10,0,0.32544028759,0.00690109236166,39
732719000000,56655,732719000000,0,0.300000011921,-8,0,0.269554138184,-0.00312020769343,36
732729000000,56656,732729000000,0,0.300000011921,-9,0,0.295703649521,0.00849444698542,37
732740000000,56657,732740000000,0,0.300000011921,-9,0,0.292555660009,-0.000901699473616,39
732751000000,56658,732751000000,0,0.300000011921,-10,0,0.321924984455,0.00331325177103,43
732761000000,56659,732761000000,0,0.300000011921,-8,0,0.263693779707,0.00120835890993,38
732771000000,56660,732771000000,0,0.300000011921,-9,0,0.282523065805,-0.00435969606042,36
732782000000,56661,732782000000,0,0.300000011921,-10,0,0.306047320366,0.00096839654725,40
732792000000,56662,732792000000,0,0.300000011921,-9,0,0.288602739573,0.00410026544705,39
732803000000,56663,732803000000,0,0.300000011921,-9,0,0.288373410702,-0.00106763129588,42
732813000000,56664,732813000000,0,0.300000011921,-9,0,0.273110896349,-0.00291197118349,39
732823000000,56665,732823000000,0,0.300000011921,-10,0,0.304871499538,-0.000567317183595,37
732834000000,56666,732834000000,0,0.300000011921,-10,0,0.303093492985,0.00485649704933,43
732844000000,56667,732844000000,0,0.300000011921,-9,0,0.288766264915,-0.00106417830102,39
732854000000,56668,732854000000,0,0.300000011921,-9,0,0.282186448574,-0.000939179386478,35
732865000000,56669,732865000000,0,0.300000011921,-9,0,0.285076797009,-3.8943340769e-05,37
732876000000,56670,732876000000,0,0.300000011921,-10,0,0.314024865627,0.00857703201473,38
732886000000,56671,732886000000,0,0.300000011921,-8,0,0.269773304462,0.00813131220639,36
732896000000,56672,732896000000,0,0.300000011921,-9,0,0.292587399483,-0.00425107264891,29
732907000000,56673,732907000000,0,0.300000011921,-9,0,0.284437417984,-9.75566799752e-05,34
732918000000,56674,732918000000,0,0.300000011921,-10,0,0.321594595909,0.00543540762737,43
732928000000,56675,732928000000,0,0.300000011921,-9,0,0.27000272274,0.00365603598766,43
732938000000,56676,732938000000,0,0.300000011921,-9,0,0.297249078751,-0.00151552527677,32
732949000000,56677,732949000000,0,0.300000011921,-10,0,0.303673177958,-0.000586754002143,40
732959000000,56678,732959000000,0,0.300000011921,-9,0,0.293356448412,0.0033345783595,36
732969000000,56679,732969000000,0,0.300000011921,-10,0,0.300259590149,0.00193339877296,36
732980000000,56680,732980000000,0,0.300000011921,-8,0,0.268948912621,-0.000577082275413,34
732991000000,56681,732991000000,0,0.300000011921,-10,0,0.313614219427,-7.44815915823e-05,40
733001000000,56682,733001000000,0,0.300000011921,-9,0,0.274606496096,0.00526589108631,47
733011000000,56683,733011000000,0,0.300000011921,-9,0,0.2920768857,0.00115608144552,34
733021000000,56684,733021000000,0,0.300000011921,-9,0,0.294241636992,-0.0042985137552,33
733032000000,56685,733032000000,0,0.300000011921,-9,0,0.284940361977,-0.00017865258269,42
733043000000,56686,733043000000,0,0.300000011921,-10,0,0.320610165596,0.0027774698101,41
733053000000,56687,733053000000,0,0.300000011921,-8,0,0.263233155012,0.00118593336083,38
733063000000,56688,733063000000,0,0.300000011921,-9,0,0.289064764977,2.83755853161e-05,33
733074000000,56689,733074000000,0,0.300000011921,-10,0,0.303309440613,0.00373084866442,37
733085000000,56690,733085000000,0,0.300000011921,-10,0,0.316837757826,0.00992127787322,46
733095000000,56691,733095000000,0,0.300000011921,-9,0,0.292786389589,-0.00184706982691,36
733105000000,56692,733105000000,0,0.300000011921,-8,0,0.256632119417,-3.5833902075e-05,37
733116000000,56693,733116000000,0,0.300000011921,-10,0,0.320914268494,0.00295855035074,39
733127000000,56694,733127000000,0,0.300000011921,-8,0,0.263064742088,0.00142746302299,46
733136000000,56695,733136000000,0,0.300000011921,-9,0,0.298619091511,0.000856163329445,32
733147000000,56696,733147000000,0,0.300000011921,-9,0,0.2802067101,0.000619979517069,33
733158000000,56697,733158000000,0,0.300000011921,-10,0,0.324206650257,-0.00054189900402,40
733168000000,56698,733168000000,0,0.300000011921,-10,0,0.310368061066,0.0211693160236,41
733178000000,56699,733178000000,0,0.300000011921,-10,0,0.301102399826,-0.00635646330193,33
733188000000,56700,733188000000,0,0.300000011921,-10,0,0.308045864105,0.00162683904637,31
733199000000,56701,733199000000,0,0.300000011921,-10,0,0.305764138699,-0.000505315954797,43
733210000000,56702,733210000000,0,0.300000011921,-11,0,0.331978797913,0.00771342683583,43
733220000000,56703,733220000000,0,0.300000011921,-9,0,0.284330546856,0.00238436181098,35
733230000000,56704,733230000000,0,0.300000011921,-10,0,0.314603209496,0.00331780407578,32
733242000000,56705,733242000000,0,0.300000011921,-10,0,0.31579720974,-0.00235566450283,42
733251000000,56706,733251000000,0,0.300000011921,-11,0,0.338305652142,0.00751501368359,35
733262000000,56707,733262000000,0,0.300000011921,-10,0,0.302599847317,-0.00409750780091,36
733272000000,56708,733272000000,0,0.300000011921,-9,0,0.293575227261,0.00111601222306,35
733283000000,56709,733283000000,0,0.300000011921,-12,0,0.369426339865,0.000672217924148,38
733293000000,56710,733293000000,0,0.300000011921,-10,0,0.322654247284,0.000223263632506,39
733303000000,56711,733303000000,0,0.300000011921,-10,0,0.311108112335,0.0101187489927,31
733313000000,56712,733313000000,0,0.300000011921,-10,0,0.301121860743,0.00023803501972,27
733324000000,56713,733324000000,0,0.300000011921,-11,0,0.354663431644,0.00323145347647,38
733335000000,56714,733335000000,0,0.300000011921,-10,0,0.32534211874,0.00721156736836,39
733345000000,56715,733345000000,0,0.300000011921,-10,0,0.310941904783,0.00441178353503,31
733355000000,56716,733355000000,0,0.300000011921,-11,0,0.331839025021,0.00148783845361,31
733366000000,56717,733366000000,0,0.300000011921,-11,0,0.338250219822,0.00179716851562,37
733377000000,56718,733377000000,0,0.300000011921,-11,0,0.351752102375,-0.00209633167833,40
733386000000,56719,733386000000,0,0.300000011921,-9,0,0.298535764217,0.00850469619036,27
733396000000,56720,733396000000,0,0.300000011921,-11,0,0.336369454861,-0.00176294939592,25
733408000000,56721,733408000000,0,0.300000011921,-11,0,0.340277433395,0.00705795735121,42
733419000000,56722,733419000000,0,0.300000011921,-11,0,0.348898649216,0.0110147362575,41
733428000000,56723,733428000000,0,0.300000011921,-11,0,0.338634073734,0.0210087411106,30
733438000000,56724,733438000000,0,0.300000011921,-9,0,0.296115875244,-0.000579716521315,26
733450000000,56725,733450000000,0,0.300000011921,-11,0,0.333824872971,0.00409996043891,40
733460000000,56726,733460000000,0,0.300000011921,-11,0,0.335953056812,-0.00419462099671,37
733469000000,56727,733469000000,0,0.300000011921,-11,0,0.338529527187,0.00315072992817,25
733481000000,56728,733481000000,0,0.300000011921,-10,0,0.310261428356,-0.00316014140844,41
733492000000,56729,733492000000,0,0.300000011921,-12,0,0.363736867905,-0.00478757731616,41
733502000000,56730,733502000000,0,0.300000011921,-10,0,0.32859069109,-0.000666753621772,39
733512000000,56731,733512000000,0,0.300000011921,-10,0,0.32658046484,-0.00237208930776,30
733522000000,56732,733522000000,0,0.300000011921,-11,0,0.332543432713,-0.00115713430569,27
733533000000,56733,733533000000,0,0.300000011921,-11,0,0.340102702379,0.000591118470766,38
733543000000,56734,733543000000,0,0.300000011921,-12,0,0.362412691116,0.00430826982483,35
733553000000,56735,733553000000,0,0.300000011921,-9,0,0.292806893587,-0.00347181316465,28
733565000000,56736,733565000000,0,0.300000011921,-11,0,0.34027248621,0.00220669666305,38
733575000000,56737,733575000000,0,0.300000011921,-10,0,0.324313640594,0.00778754241765,46
733585000000,56738,733585000000,0,0.300000011921,-11,0,0.356778562069,-0.0008036470972,40
733595000000,56739,733595000000,0,0.300000011921,-10,0,0.310601830482,-0.0102902967483,27
733606000000,56740,733606000000,0,0.300000011921,-10,0,0.303609997034,0.00235450733453,34
733617000000,56741,733617000000,0,0.300000011921,-11,0,0.351514458656,8.71420270414e-05,41
733627000000,56742,733627000000,0,0.300000011921,-10,0,0.321205317974,-0.000390324159525,37
733637000000,56743,733637000000,0,0.300000011921,-10,0,0.317012071609,0.00714841997251,33
733647000000,56744,733647000000,0,0.300000011921,-10,0,0.306882619858,0.00146571465302,29
733659000000,56745,733659000000,0,0.300000011921,-12,0,0.360655963421,0.00159545510542,43
733669000000,56746,733669000000,0,0.300000011921,-10,0,0.302768409252,0.00820652488619,38
733678000000,56747,733678000000,0,0.300000011921,-11,0,0.336517930031,0.0127055337653,28
733689000000,56748,733689000000,0,0.300000011921,-10,0,0.322773933411,0.000988902407698,34
733700000000,56749,733700000000,0,0.300000011921,-10,0,0.325795412064,6.51217997074e-05,39
733710000000,56750,733710000000,0,0.300000011921,-11,0,0.333640396595,0.0084627661854,35
733720000000,56751,733720000000,0,0.300000011921,-9,0,0.288594841957,0.0225885566324,30
733731000000,56752,733731000000,0,0.300000011921,-10,0,0.323403358459,0.00180689827539,30
733742000000,56753,733742000000,0,0.300000011921,-10,0,0.303021609783,-0.0107173454016,38
733752000000,56754,733752000000,0,0.300000011921,-10,0,0.315763860941,0.00475911609828,35
733762000000,56755,733762000000,0,0.300000011921,-10,0,0.310710608959,0.00676768738776,31
733773000000,56756,733773000000,0,0.300000011921,-10,0,0.302335381508,0.00116898131091,34
733784000000,56757,733784000000,0,0.300000011921,-11,0,0.332765996456,0.00540060829371,41
733794000000,56758,733794000000,0,0.300000011921,-9,0,0.298128694296,0.000611276656855,41
733804000000,56759,733804000000,0,0.300000011921,-10,0,0.303945124149,0.0141432741657,35
733815000000,56760,733815000000,0,0.300000011921,-9,0,0.293355882168,0.000418415293097,33
733826000000,56761,733826000000,0,0.300000011921,-10,0,0.32270437479,0.00499789929017,41
733836000000,56762,733836000000,0,0.300000011921,-9,0,0.283496081829,-1.15033217298e-05,39
733846000000,56763,733846000000,0,0.300000011921,-10,0,0.305429279804,-0.00132353731897,34
733856000000,56764,733856000000,0,0.300000011921,-10,0,0.329519212246,0.000594084267505,36
733867000000,56765,733867000000,0,0.300000011921,-10,0,0.304526180029,0.00154112826567,38
733878000000,56766,733878000000,0,0.300000011921,-10,0,0.307619512081,-0.0058635622263,45
733888000000,56767,733888000000,0,0.300000011921,-9,0,0.285087168217,-0.00218202359974,36
733899000000,56768,733899000000,0,0.300000011921,-10,0,0.320079684258,-3.20873296005e-05,37
733910000000,56769,733910000000,0,0.300000011921,-10,0,0.313383311033,0.0093291644007,47
733919000000,56770,733919000000,0,0.300000011921,-10,0,0.302619159222,-0.00162272923626,38
733930000000,56771,733930000000,0,0.300000011921,-10,0,0.314655900002,0.00797620881349,36
733940000000,56772,733940000000,0,0.300000011921,-9,0,0.287353992462,-0.0004542087554,37
733951000000,56773,733951000000,0,0.300000011921,-11,0,0.342662811279,-0.00386206316762,41
733961000000,56774,733961000000,0,0.300000011921,-9,0,0.284134864807,0.00418986286968,37
733971000000,56775,733971000000,0,0.300000011921,-10,0,0.329429298639,-0.000504937721416,29
733982000000,56776,733982000000,0,0.300000011921,-10,0,0.303811252117,0.000497618922964,46
733993000000,56777,733993000000,0,0.300000011921,-11,0,0.33932864666,0.00574564002454,44
734003000000,56778,734003000000,0,0.300000011921,-9,0,0.28406894207,-0.00237728049979,41
734013000000,56779,734013000000,0,0.300000011921,-10,0,0.305910885334,-0.000705155020114,33
734024000000,56780,734024000000,0,0.300000011921,-10,0,0.318789422512,-0.000610065937508,38
734035000000,56781,734035000000,0,0.300000011921,-10,0,0.306439161301,0.00479213986546,48
734044000000,56782,734044000000,0,0.300000011921,-10,0,0.308515071869,-0.00284573948011,35
734054000000,56783,734054000000,0,0.300000011921,-9,0,0.28392291069,-0.0069222887978,30
734065000000,56784,734065000000,0,0.300000011921,-10,0,0.325942158699,0.000966228893958,35
734076000000,56785,734076000000,0,0.300000011921,-10,0,0.305347144604,-0.00227356213145,41
734086000000,56786,734086000000,0,0.300000011921,-9,0,0.299390614033,0.00138027523644,34
734096000000,56787,734096000000,0,0.300000011921,-10,0,0.303453266621,-0.00212351768278,32
734107000000,56788,734107000000,0,0.300000011921,-9,0,0.292546242476,-4.79005939269e-05,34
734118000000,56789,734118000000,0,0.300000011921,-10,0,0.326734989882,-0.00259884353727,47
734128000000,56790,734128000000,0,0.300000011921,-9,0,0.277021259069,-1.33684370667e-05,44
734138000000,56791,734138000000,0,0.300000011921,-10,0,0.303326189518,-0.0030156110879,37
734149000000,56792,734149000000,0,0.300000011921,-9,0,0.29571723938,0.000847889925353,46
734160000000,56793,734160000000,0,0.300000011921,-11,0,0.331304967403,0.000268727890216,43
734170000000,56794,734170000000,0,0.300000011921,-8,0,0.269017606974,-0.00363685796037,39
734180000000,56795,734180000000,0,0.300000011921,-9,0,0.299511373043,0.00303642358631,29
734191000000,56796,734191000000,0,0.300000011921,-10,0,0.318685472012,0.00160627113655,42
734201000000,56797,734201000000,0,0.300000011921,-10,0,0.308858722448,0.0129077965394,43
734211000000,56798,734211000000,0,0.300000011921,-10,0,0.300901710987,-0.00361166126095,37
734222000000,56799,734222000000,0,0.300000011921,-9,0,0.276109606028,-0.00114418019075,35
734232000000,56800,734232000000,0,0.300000011921,-10,0,0.324412256479,0.00228511309251,37
734243000000,56801,734243000000,0,0.300000011921,-9,0,0.294770270586,0.00496275536716,39
734253000000,56802,734253000000,0,0.300000011921,-10,0,0.305689811707,-0.00267520966008,33
734264000000,56803,734264000000,0,0.300000011921,-10,0,0.309872686863,-0.00167204148602,42
734274000000,56804,734274000000,0,0.300000011921,-9,0,0.2921641469,-0.000129705818836,42
734285000000,56805,734285000000,0,0.300000011921,-10,0,0.328915774822,0.00956844352186,45
734295000000,56806,734295000000,0,0.300000011921,-9,0,0.270158797503,-0.00149363512173,35
734305000000,56807,734305000000,0,0.300000011921,-9,0,0.296925038099,0.000851590069942,36
734316000000,56808,734316000000,0,0.300000011921,-9,0,0.295040696859,0.00111132615712,43
734327000000,56809,734327000000,0,0.300000011921,-11,0,0.335255563259,-0.00544256949797,45
734337000000,56810,734337000000,0,0.300000011921,-8,0,0.263250589371,0.00277570472099,35
734348000000,56811,734348000000,0,0.300000011921,-9,0,0.294893562794,-0.00041167618474,39
734358000000,56812,734358000000,0,0.300000011921,-11,0,0.332838922739,-0.000458330730908,43
734369000000,56813,734369000000,0,0.300000011921,-10,0,0.301681518555,0.000499752466567,45
734378000000,56814,734378000000,0,0.300000011921,-9,0,0.299845308065,0.000765196047723,30
734389000000,56815,734389000000,0,0.300000011921,-8,0,0.2680798769,0.000981193035841,39
734400000000,56816,734400000000,0,0.300000011921,-10,0,0.316855251789,3.1067753298e-05,44
734410000000,56817,734410000000,0,0.300000011921,-9,0,0.292670369148,0.0068593765609,47
734421000000,56818,734421000000,0,0.300000011921,-9,0,0.295569896698,0.00680369324982,43
734430000000,56819,734430000000,0,0.300000011921,-9,0,0.295648902655,0.00837501417845,30
734441000000,56820,734441000000,0,0.300000011921,-9,0,0.296292960644,0.000937993521802,39
734452000000,56821,734452000000,0,0.300000011921,-11,0,0.334899246693,0.000823779962957,43
734461000000,56822,734461000000,0,0.300000011921,-9,0,0.273785561323,0.000405814207625,31
734472000000,56823,734472000000,0,0.300000011921,-10,0,0.301616370678,-0.00071668275632,32
734484000000,56824,734484000000,0,0.300000011921,-9,0,0.292569756508,0.00277508958243,47
734494000000,56825,734494000000,0,0.300000011921,-10,0,0.317038595676,0.00228967610747,45
734504000000,56826,734504000000,0,0.300000011921,-8,0,0.267911583185,0.000572836783249,41
734515000000,56827,734515000000,0,0.300000011921,-10,0,0.306847840548,-0.00425565196201,41
734525000000,56828,734525000000,0,0.300000011921,-10,0,0.31568467617,0.00194771378301,41
734536000000,56829,734536000000,0,0.300000011921,-9,0,0.289858222008,0.000682167708874,53
734546000000,56830,734546000000,0,0.300000011921,-10,0,0.300550013781,0.00590177252889,42
734556000000,56831,734556000000,0,0.300000011921,-9,0,0.276113301516,-8.57541181176e-06,38
734567000000,56832,734567000000,0,0.300000011921,-10,0,0.313909173012,-0.000980988494121,49
734578000000,56833,734578000000,0,0.300000011921,-9,0,0.273525595665,0.00049139559269,48
734587000000,56834,734587000000,0,0.300000011921,-9,0,0.292765200138,0.00137087330222,32
734597000000,56835,734597000000,0,0.300000011921,-10,0,0.302340328693,-0.000630318943877,34
734608000000,56836,734608000000,0,0.300000011921,-9,0,0.281680434942,0.00398776773363,43
734619000000,56837,734619000000,0,0.300000011921,-10,0,0.32332354784,0.00251129176468,46
734629000000,56838,734629000000,0,0.300000011921,-8,0,0.26345077157,-0.000501489499584,34
734640000000,56839,734640000000,0,0.300000011921,-10,0,0.308054566383,0.00108533841558,40
734651000000,56840,734651000000,0,0.300000011921,-9,0,0.295954525471,-0.0033525316976,49
734661000000,56841,734661000000,0,0.300000011921,-10,0,0.322140872478,-0.00922569353133,53
734671000000,56842,734671000000,0,0.300000011921,-9,0,0.289953410625,0.00781885627657,40
734681000000,56843,734681000000,0,0.300000011921,-9,0,0.277666091919,0.0112757980824,36
734692000000,56844,734692000000,0,0.300000011921,-10,0,0.320454716682,0.00223552179523,49
734702000000,56845,734702000000,0,0.300000011921,-9,0,0.29692581296,0.000458670489024,43
734712000000,56846,734712000000,0,0.300000011921,-9,0,0.298566043377,-0.00212118285708,33
734723000000,56847,734723000000,0,0.300000011921,-9,0,0.274054020643,0.000471603445476,44
734734000000,56848,734734000000,0,0.300000011921,-10,0,0.322293013334,-0.00141848355997,48
734745000000,56849,734745000000,0,0.300000011921,-8,0,0.269930362701,-0.00143555435352,52
734754000000,56850,734754000000,0,0.300000011921,-10,0,0.308989018202,0.00490127597004,32
734765000000,56851,734765000000,0,0.300000011921,-10,0,0.301099300385,0.000103223530459,36
734777000000,56852,734777000000,0,0.300000011921,-10,0,0.306561619043,-0.00270760827698,58
734786000000,56853,734786000000,0,0.300000011921,-10,0,0.324518561363,0.00317481416278,48
734796000000,56854,734796000000,0,0.300000011921,-8,0,0.269425868988,0.00192435726058,37
734806000000,56855,734806000000,0,0.300000011921,-10,0,0.308257967234,0.00125701760408,37
734817000000,56856,734817000000,0,0.300000011921,-9,0,0.298196852207,0.00434639677405,42
734827000000,56857,734827000000,0,0.300000011921,-10,0,0.309454202652,0.00520553067327,37
734838000000,56858,734838000000,0,0.300000011921,-10,0,0.304484069347,0.00366093381308,38
734848000000,56859,734848000000,0,0.300000011921,-9,0,0.284428954124,-0.00211644149385,37
734859000000,56860,734859000000,0,0.300000011921,-10,0,0.319661259651,-0.00190703198314,45
734870000000,56861,734870000000,0,0.300000011921,-9,0,0.289716690779,0.000958778487984,48
734879000000,56862,734879000000,0,0.300000011921,-9,0,0.294746696949,-0.00435038516298,34
734890000000,56863,734890000000,0,0.300000011921,-9,0,0.285225629807,0.00151330791414,34
734900000000,56864,734900000000,0,0.300000011921,-11,0,0.344560354948,0.000867009744979,40
734912000000,56865,734912000000,0,0.300000011921,-9,0,0.276998013258,0.00984437949955,49
734921000000,56866,734921000000,0,0.300000011921,-10,0,0.313830047846,0.00581908365712,38
734932000000,56867,734932000000,0,0.300000011921,-10,0,0.325873434544,0.00251186266541,36
734942000000,56868,734942000000,0,0.300000011921,-10,0,0.307492077351,0.00147648155689,43
734953000000,56869,734953000000,0,0.300000011921,-10,0,0.316785663366,0.00388433132321,41
734964000000,56870,734964000000,0,0.300000011921,-9,0,0.272605001926,0.00948950648308,44
734974000000,56871,734974000000,0,0.300000011921,-10,0,0.308328151703,0.00216233544052,47
734984000000,56872,734984000000,0,0.300000011921,-10,0,0.303135335445,0.00299394293688,46
734995000000,56873,734995000000,0,0.300000011921,-10,0,0.311823606491,0.00639804080129,46
735004000000,56874,735004000000,0,0.300000011921,-9,0,0.296572744846,-0.0140393441543,31
735016000000,56875,735016000000,0,0.300000011921,-9,0,0.290599197149,0.00766030652449,50
735026000000,56876,735026000000,0,0.300000011921,-10,0,0.329058200121,-0.00335472729057,42
735036000000,56877,735036000000,0,0.300000011921,-9,0,0.292630851269,-0.000144118792377,40
