%time,field.header.seq,field.header.stamp,field.header.frame_id,field.ground_distance,field.flow_x,field.flow_y,field.velocity_x,field.velocity_y,field.quality
798922000000,62998,798922000000,0,0.300000011921,-13,0,0.404757201672,0.015187853016,46
798931000000,62999,798931000000,0,0.300000011921,-11,0,0.349516570568,-0.0109545793384,27
798942000000,63000,798942000000,0,0.300000011921,-12,0,0.372247874737,0.0117082446814,34
798953000000,63001,798953000000,0,0.300000011921,-8,1,0.251553684473,-0.038224235177,39
798963000000,63002,798963000000,0,0.300000011921,-10,0,0.31582480669,-0.0123658571392,39
798973000000,63003,798973000000,0,0.300000011921,-13,0,0.407199978828,0.00837367679924,34
798984000000,63004,798984000000,0,0.300000011921,-11,0,0.354595661163,-0.00504722259939,37
798995000000,63005,798995000000,0,0.300000011921,-9,0,0.274858593941,-0.0118688317016,39
799005000000,63006,799005000000,0,0.300000011921,-12,0,0.377454817295,0.00896877609193,29
799015000000,63007,799015000000,0,0.300000011921,-13,0,0.393495738506,-0.00246371771209,39
799026000000,63008,799026000000,0,0.300000011921,-11,0,0.350732505322,-0.00879842601717,36
799036000000,63009,799036000000,0,0.300000011921,-12,0,0.367936074734,0.00953517109156,38
799046000000,63010,799046000000,0,0.300000011921,-12,0,0.376189887524,-0.0118266995996,33
799056000000,63011,799056000000,0,0.300000011921,-11,0,0.359017252922,0.00827053841203,28
799068000000,63012,799068000000,0,0.300000011921,-13,0,0.399340510368,-0.0100089395419,39
799079000000,63013,799079000000,0,0.300000011921,-11,0,0.349029690027,0.00351976975799,46
799088000000,63014,799088000000,0,0.300000011921,-13,0,0.408585786819,0.00585765019059,34
799098000000,63015,799098000000,0,0.300000011921,-11,0,0.345573335886,0.0145930182189,24
799110000000,63016,799110000000,0,0.300000011921,-12,0,0.362079560757,0.0223268941045,46
799120000000,63017,799120000000,0,0.300000011921,-13,0,0.398421406746,0.00597045104951,47
799130000000,63018,799130000000,0,0.300000011921,-11,0,0.333107471466,-0.00959329400212,36
799140000000,63019,799140000000,0,0.300000011921,-12,0,0.362650513649,0.012099259533,32
799151000000,63020,799151000000,0,0.300000011921,-11,0,0.351879358292,8.66244081408e-05,34
799162000000,63021,799162000000,0,0.300000011921,-10,0,0.318949997425,-0.00786568969488,48
799172000000,63022,799172000000,0,0.300000011921,-12,0,0.376371860504,0.00726605532691,38
799181000000,63023,799181000000,0,0.300000011921,-12,0,0.373182415962,0.000424132100306,27
799193000000,63024,799193000000,0,0.300000011921,-12,0,0.370351016521,-0.0123061724007,45
799204000000,63025,799204000000,0,0.300000011921,-11,0,0.353265404701,0.0190216600895,42
799214000000,63026,799214000000,0,0.300000011921,-12,0,0.363240361214,-0.0152604877949,39
799223000000,63027,799223000000,0,0.300000011921,-12,0,0.369261026382,-0.0158622916788,26
799235000000,63028,799235000000,0,0.300000011921,-12,0,0.379288375378,0.00964382756501,38
799245000000,63029,799245000000,0,0.300000011921,-11,0,0.356454581022,0.000617039157078,42
799256000000,63030,799256000000,0,0.300000011921,-12,0,0.387482970953,0.00798940099776,41
799265000000,63031,799265000000,0,0.300000011921,-12,0,0.370244979858,-0.000579091836698,32
799277000000,63032,799277000000,0,0.300000011921,-13,0,0.390132457018,-0.00743132364005,46
799287000000,63033,799287000000,0,0.300000011921,-11,0,0.342949211597,0.00508648343384,41
799297000000,63034,799297000000,0,0.300000011921,-11,0,0.331305503845,0.00648596370593,35
799308000000,63035,799308000000,0,0.300000011921,-11,0,0.34794986248,0.0172929055989,40
799318000000,63036,799318000000,0,0.300000011921,-11,0,0.35558539629,0.00357319973409,43
799329000000,63037,799329000000,0,0.300000011921,-11,0,0.34254950285,0.00182959041558,46
799339000000,63038,799339000000,0,0.300000011921,-10,0,0.323552191257,0.00322894356214,39
799349000000,63039,799349000000,0,0.300000011921,-11,0,0.336214065552,0.0139689538628,33
799360000000,63040,799360000000,0,0.300000011921,-11,0,0.337179869413,0.011753690429,45
799371000000,63041,799371000000,0,0.300000011921,-11,0,0.347965121269,0.0291098766029,49
799380000000,63042,799380000000,0,0.300000011921,-11,0,0.357109963894,-0.0184254609048,33
799390000000,63043,799390000000,0,0.300000011921,-11,0,0.347030639648,0.00899462029338,29
799402000000,63044,799402000000,0,0.300000011921,-12,0,0.382163047791,-0.0129788005725,47
799412000000,63045,799412000000,0,0.300000011921,-11,0,0.355501353741,-0.00646365899593,38
799423000000,63046,799423000000,0,0.300000011921,-12,0,0.389963209629,-0.00132328714244,40
799432000000,63047,799432000000,0,0.300000011921,-11,0,0.359387278557,0.00466925371438,32
799444000000,63048,799444000000,0,0.300000011921,-12,0,0.377685070038,-8.03312286735e-05,45
799454000000,63049,799454000000,0,0.300000011921,-12,0,0.367136120796,-0.00369777856395,44
799464000000,63050,799464000000,0,0.300000011921,-12,0,0.361904799938,-0.0111419558525,38
799474000000,63051,799474000000,0,0.300000011921,-12,0,0.382932752371,-0.00986670702696,33
799485000000,63052,799485000000,0,0.300000011921,-11,0,0.333497285843,0.0134484106675,44
799497000000,63053,799497000000,0,0.300000011921,-11,0,0.348780632019,0.00349401589483,45
799507000000,63054,799507000000,0,0.300000011921,-11,0,0.354149669409,-0.00304650980979,47
799516000000,63055,799516000000,0,0.300000011921,-13,0,0.400332421064,-0.0012826215243,33
799527000000,63056,799527000000,0,0.300000011921,-10,0,0.327502608299,-0.00795255508274,42
799537000000,63057,799537000000,0,0.300000011921,-13,0,0.392112314701,-0.0122987944633,40
799547000000,63058,799547000000,0,0.300000011921,-11,0,0.331321150064,-0.00172019319143,29
799558000000,63059,799558000000,0,0.300000011921,-12,0,0.361384034157,-0.00302933831699,36
799569000000,63060,799569000000,0,0.300000011921,-11,0,0.334024012089,-0.0118263615295,42
799579000000,63061,799579000000,0,0.300000011921,-10,0,0.327758729458,0.0115843694657,44
799589000000,63062,799589000000,0,0.300000011921,-11,0,0.349669098854,-0.0284673776478,34
799599000000,63063,799599000000,0,0.300000011921,-10,0,0.329024493694,0.000278316438198,30
799611000000,63064,799611000000,0,0.300000011921,-10,0,0.311508059502,0.0197741221637,45
799621000000,63065,799621000000,0,0.300000011921,-11,0,0.348189651966,0.0137496050447,44
799631000000,63066,799631000000,0,0.300000011921,-10,0,0.326753169298,0.00839048530906,36
799641000000,63067,799641000000,0,0.300000011921,-12,0,0.36709305644,0.00315463612787,28
799652000000,63068,799652000000,0,0.300000011921,-9,0,0.296236872673,-0.00186840817332,44
799663000000,63069,799663000000,0,0.300000011921,-11,0,0.342958807945,0.0108655635267,39
799672000000,63070,799672000000,0,0.300000011921,-10,0,0.318659633398,-0.00341894151643,29
799683000000,63071,799683000000,0,0.300000011921,-12,0,0.373539149761,-0.00418826984242,35
799694000000,63072,799694000000,0,0.300000011921,-9,1,0.295548677444,-0.0329907760024,38
799704000000,63073,799704000000,0,0.300000011921,-11,0,0.346444129944,-0.00392996007577,41
799715000000,63074,799715000000,0,0.300000011921,-11,0,0.356505155563,-0.0200462844223,42
799725000000,63075,799725000000,0,0.300000011921,-11,0,0.355784058571,-0.00421104487032,39
799736000000,63076,799736000000,0,0.300000011921,-12,0,0.378498792648,-0.00731739401817,39
799746000000,63077,799746000000,0,0.300000011921,-12,0,0.361139059067,0.0186736397445,34
799756000000,63078,799756000000,0,0.300000011921,-11,0,0.359930098057,-0.0231533311307,38
799767000000,63079,799767000000,0,0.300000011921,-9,0,0.274865746498,-0.012258021161,40
799778000000,63080,799778000000,0,0.300000011921,-10,0,0.314172714949,-0.0129565186799,44
799788000000,63081,799788000000,0,0.300000011921,-12,0,0.382814884186,-0.00593553669751,48
799798000000,63082,799798000000,0,0.300000011921,-11,0,0.349174797535,0.00836420804262,37
799808000000,63083,799808000000,0,0.300000011921,-12,0,0.385433077812,0.00373684428632,37
799820000000,63084,799820000000,0,0.300000011921,-10,0,0.319878697395,-0.018166648224,45
799830000000,63085,799830000000,0,0.300000011921,-12,0,0.36862885952,-0.0172070320696,41
799840000000,63086,799840000000,0,0.300000011921,-10,0,0.31538271904,0.00849462673068,41
799851000000,63087,799851000000,0,0.300000011921,-12,0,0.372259259224,0.00468988530338,43
799861000000,63088,799861000000,0,0.300000011921,-8,0,0.26930141449,-0.00871672108769,47
799871000000,63089,799871000000,0,0.300000011921,-11,0,0.357303619385,0.0174288116395,40
799881000000,63090,799881000000,0,0.300000011921,-12,0,0.369333803654,0.00825753528625,33
799892000000,63091,799892000000,0,0.300000011921,-10,0,0.324865460396,0.00403921073303,33
799903000000,63092,799903000000,0,0.300000011921,-9,0,0.281222462654,-0.01286059618,40
799913000000,63093,799913000000,0,0.300000011921,-11,0,0.352670669556,-0.00957451574504,41
799923000000,63094,799923000000,0,0.300000011921,-13,0,0.40056347847,-0.0071520623751,38
799934000000,63095,799934000000,0,0.300000011921,-11,0,0.35739672184,0.00768620101735,35
799945000000,63096,799945000000,0,0.300000011921,-11,0,0.330342948437,0.0214808154851,47
799955000000,63097,799955000000,0,0.300000011921,-12,0,0.37475964427,0.00567896198481,43
799965000000,63098,799965000000,0,0.300000011921,-11,0,0.333282202482,-0.0252178497612,38
799976000000,63099,799976000000,0,0.300000011921,-11,0,0.339481532574,0.0213395543396,38
799987000000,63100,799987000000,0,0.300000011921,-10,0,0.305115938187,-0.0276040919125,48
799997000000,63101,799997000000,0,0.300000011921,-12,0,0.38246434927,-0.0086669344455,42
800007000000,63102,800007000000,0,0.300000011921,-12,0,0.364643514156,-0.00105299893767,36
800017000000,63103,800017000000,0,0.300000011921,-12,0,0.38419508934,0.00306838308461,38
800028000000,63104,800028000000,0,0.300000011921,-12,0,0.388959974051,0.00786607526243,46
800039000000,63105,800039000000,0,0.300000011921,-12,0,0.371614873409,-0.00460212538019,44
800049000000,63106,800049000000,0,0.300000011921,-13,0,0.391590505838,-0.0151831032708,38
800059000000,63107,800059000000,0,0.300000011921,-12,0,0.361477673054,-0.00357592781074,38
800070000000,63108,800070000000,0,0.300000011921,-12,0,0.362906932831,-0.00399446953088,51
800080000000,63109,800080000000,0,0.300000011921,-11,0,0.359255671501,-0.00189179880545,45
800090000000,63110,800090000000,0,0.300000011921,-13,0,0.405135780573,0.000556784507353,36
800101000000,63111,800101000000,0,0.300000011921,-11,0,0.346665650606,-0.00314532150514,46
800111000000,63112,800111000000,0,0.300000011921,-12,0,0.363270938396,0.00972880143672,38
800122000000,63113,800122000000,0,0.300000011921,-13,0,0.406564056873,0.00389365758747,40
800132000000,63114,800132000000,0,0.300000011921,-11,0,0.359760463238,-0.00651409523562,33
800143000000,63115,800143000000,0,0.300000011921,-13,0,0.394990444183,-0.00354362977669,42
800154000000,63116,800154000000,0,0.300000011921,-10,0,0.304099261761,-0.01483738143,45
800164000000,63117,800164000000,0,0.300000011921,-12,0,0.382472217083,-0.0199742298573,41
800174000000,63118,800174000000,0,0.300000011921,-11,0,0.357991337776,-0.00246872147545,34
800184000000,63119,800184000000,0,0.300000011921,-13,0,0.399615526199,-0.0115294763818,36
800196000000,63120,800196000000,0,0.300000011921,-12,0,0.382275223732,0.0170319844037,49
800206000000,63121,800206000000,0,0.300000011921,-10,0,0.306876182556,-0.0103320162743,45
800216000000,63122,800216000000,0,0.300000011921,-11,0,0.350906789303,-0.00764930760488,39
800226000000,63123,800226000000,0,0.300000011921,-12,0,0.369536817074,0.00324482680298,41
800237000000,63124,800237000000,0,0.300000011921,-10,0,0.32285541296,-0.00958777964115,46
800247000000,63125,800247000000,0,0.300000011921,-11,0,0.349812507629,0.000760835013352,39
800258000000,63126,800258000000,0,0.300000011921,-13,0,0.39817199111,-0.0018566622166,43
800268000000,63127,800268000000,0,0.300000011921,-12,0,0.369372665882,-0.00139268115163,47
800279000000,63128,800279000000,0,0.300000011921,-10,1,0.310081124306,-0.0440476089716,46
800289000000,63129,800289000000,0,0.300000011921,-12,0,0.370266288519,-0.00763708353043,42
800299000000,63130,800299000000,0,0.300000011921,-11,0,0.337106227875,-0.0127059267834,42
800310000000,63131,800310000000,0,0.300000011921,-12,0,0.381448805332,-0.013802152127,47
800321000000,63132,800321000000,0,0.300000011921,-10,0,0.316985845566,-0.00398623710498,46
800331000000,63133,800331000000,0,0.300000011921,-11,0,0.354048371315,-0.00923872645944,41
800341000000,63134,800341000000,0,0.300000011921,-11,0,0.344662100077,-0.0108097651973,37
800352000000,63135,800352000000,0,0.300000011921,-12,0,0.376306861639,-0.00620796205476,43
800363000000,63136,800363000000,0,0.300000011921,-11,0,0.339385688305,-0.02824229002,49
800372000000,63137,800372000000,0,0.300000011921,-11,0,0.3404738307,-0.00786653906107,40
800383000000,63138,800383000000,0,0.300000011921,-13,0,0.398565411568,-0.00334576657042,40
800393000000,63139,800393000000,0,0.300000011921,-11,0,0.352304577827,0.000406870618463,38
800404000000,63140,800404000000,0,0.300000011921,-11,0,0.34307846427,-0.000587285030633,47
800414000000,63141,800414000000,0,0.300000011921,-10,0,0.309498131275,-0.026406660676,39
800424000000,63142,800424000000,0,0.300000011921,-13,0,0.391902208328,-0.00321477698162,36
800435000000,63143,800435000000,0,0.300000011921,-11,0,0.350187540054,-0.017489861697,42
800446000000,63144,800446000000,0,0.300000011921,-11,0,0.345066994429,-0.0279023069888,44
800456000000,63145,800456000000,0,0.300000011921,-12,0,0.389677584171,-0.00776503654197,39
800466000000,63146,800466000000,0,0.300000011921,-12,0,0.370529532433,-0.00567948957905,39
800476000000,63147,800476000000,0,0.300000011921,-13,0,0.391571313143,-0.00634304853156,37
800487000000,63148,800487000000,0,0.300000011921,-11,0,0.334378153086,-0.0185576621443,44
800498000000,63149,800498000000,0,0.300000011921,-12,0,0.384090214968,0.00162403937429,40
800508000000,63150,800508000000,0,0.300000011921,-12,0,0.367212682962,-0.00883530080318,39
800519000000,63151,800519000000,0,0.300000011921,-12,0,0.375818252563,-0.0217877887189,41
800529000000,63152,800529000000,0,0.300000011921,-11,0,0.358726114035,-0.0246229954064,43
800539000000,63153,800539000000,0,0.300000011921,-11,0,0.338268190622,-0.0169045533985,34
800549000000,63154,800549000000,0,0.300000011921,-13,0,0.403007954359,-0.0137108210474,30
800560000000,63155,800560000000,0,0.300000011921,-11,0,0.344914853573,-0.0109506044537,34
800571000000,63156,800571000000,0,0.300000011921,-12,0,0.365927278996,-0.0200223643333,40
800581000000,63157,800581000000,0,0.300000011921,-11,0,0.343013286591,0.00211162748747,39
800591000000,63158,800591000000,0,0.300000011921,-13,0,0.390231013298,0.00170445558615,33
800602000000,63159,800602000000,0,0.300000011921,-11,0,0.335086882114,-0.0176039207727,38
800612000000,63160,800612000000,0,0.300000011921,-12,0,0.375164806843,-0.0131224039942,40
800622000000,63161,800622000000,0,0.300000011921,-11,0,0.351768285036,-0.0296111293137,36
800633000000,63162,800633000000,0,0.300000011921,-12,0,0.367479771376,-0.0056161954999,32
800644000000,63163,800644000000,0,0.300000011921,-12,0,0.374345898628,-0.0291831456125,44
800654000000,63164,800654000000,0,0.300000011921,-10,0,0.314634561539,-0.0228872969747,40
800664000000,63165,800664000000,0,0.300000011921,-12,0,0.368570029736,-0.0120066860691,37
800675000000,63166,800675000000,0,0.300000011921,-11,0,0.348855137825,-0.0115810921416,39
800686000000,63167,800686000000,0,0.300000011921,-12,0,0.376878380775,-0.00244434480555,45
800696000000,63168,800696000000,0,0.300000011921,-12,0,0.367814421654,-0.0155774038285,45
800706000000,63169,800706000000,0,0.300000011921,-10,0,0.328069865704,-0.0189600512385,41
800716000000,63170,800716000000,0,0.300000011921,-12,0,0.386380016804,-0.0210887752473,28
800728000000,63171,800728000000,0,0.300000011921,-11,0,0.330840289593,-0.00903993006796,46
800739000000,63172,800739000000,0,0.300000011921,-13,0,0.401018172503,0.0107538243756,52
800748000000,63173,800748000000,0,0.300000011921,-12,0,0.362202256918,0.00306655629538,44
800758000000,63174,800758000000,0,0.300000011921,-12,0,0.387076437473,-0.0140893440694,33
800769000000,63175,800769000000,0,0.300000011921,-11,0,0.331634134054,-0.0114001799375,45
800780000000,63176,800780000000,0,0.300000011921,-12,0,0.368241488934,-0.00757330004126,42
800789000000,63177,800789000000,0,0.300000011921,-11,0,0.347942590714,-0.0249050222337,35
800800000000,63178,800800000000,0,0.300000011921,-11,0,0.347663253546,-0.00596530037001,31
800811000000,63179,800811000000,0,0.300000011921,-12,0,0.365450441837,-0.0242655426264,42
800822000000,63180,800822000000,0,0.300000011921,-10,0,0.322979390621,-0.0244359448552,49
800832000000,63181,800832000000,0,0.300000011921,-13,0,0.391108125448,0.00204243697226,43
800841000000,63182,800841000000,0,0.300000011921,-12,0,0.362616360188,0.00158443744294,28
800852000000,63183,800852000000,0,0.300000011921,-11,0,0.337255716324,-0.0285565536469,40
800863000000,63184,800863000000,0,0.300000011921,-12,0,0.38512223959,-0.00208608526736,36
800873000000,63185,800873000000,0,0.300000011921,-10,0,0.316862821579,-0.00622978340834,33
800883000000,63186,800883000000,0,0.300000011921,-12,0,0.370639353991,-0.0079342070967,31
800894000000,63187,800894000000,0,0.300000011921,-7,1,0.2360445261,-0.0514958240092,42
800905000000,63188,800905000000,0,0.300000011921,-11,1,0.33603644371,-0.0386478789151,39
800915000000,63189,800915000000,0,0.300000011921,-10,0,0.328725457191,-0.0211072005332,36
800925000000,63190,800925000000,0,0.300000011921,-13,0,0.401596605778,-0.0171198733151,32
800936000000,63191,800936000000,0,0.300000011921,-10,0,0.301194995642,-0.0229591261595,39
800946000000,63192,800946000000,0,0.300000011921,-11,0,0.344471633434,-0.0081519074738,41
800956000000,63193,800956000000,0,0.300000011921,-10,1,0.329082131386,-0.0502088442445,32
800966000000,63194,800966000000,0,0.300000011921,-12,0,0.363256752491,-0.0148513363674,30
800978000000,63195,800978000000,0,0.300000011921,-11,0,0.330676138401,-0.0279534440488,44
800987000000,63196,800987000000,0,0.300000011921,-11,0,0.347149938345,-0.024561136961,31
800998000000,63197,800998000000,0,0.300000011921,-11,0,0.337491750717,-0.0299405064434,30
801009000000,63198,801009000000,0,0.300000011921,-10,0,0.312168836594,0.00297372392379,35
801019000000,63199,801019000000,0,0.300000011921,-10,1,0.3244099617,-0.0458682961762,38
801029000000,63200,801029000000,0,0.300000011921,-12,0,0.371520340443,-0.0166853778064,35
801039000000,63201,801039000000,0,0.300000011921,-10,0,0.318119227886,-0.0127879558131,25
801050000000,63202,801050000000,0,0.300000011921,-12,0,0.377774566412,-0.0188581198454,23
801061000000,63203,801061000000,0,0.300000011921,-11,0,0.344682693481,-0.0296996869147,35
801071000000,63204,801071000000,0,0.300000011921,-12,1,0.372294038534,-0.0412654615939,34
801081000000,63205,801081000000,0,0.300000011921,-10,0,0.327249377966,-0.0242969505489,28
801092000000,63206,801092000000,0,0.300000011921,-13,0,0.393002986908,0.00143838929944,28
801102000000,63207,801102000000,0,0.300000011921,-9,1,0.283928513527,-0.0518434233963,33
801112000000,63208,801112000000,0,0.300000011921,-13,0,0.396150797606,-0.00482352916151,26
801123000000,63209,801123000000,0,0.300000011921,-10,1,0.314919054508,-0.0381240993738,29
801134000000,63210,801134000000,0,0.300000011921,-11,0,0.343629360199,-0.00554435094818,34
801144000000,63211,801144000000,0,0.300000011921,-12,0,0.376347005367,-0.0253882799298,37
801155000000,63212,801155000000,0,0.300000011921,-11,0,0.343447625637,0.00197722157463,44
801166000000,63213,801166000000,0,0.300000011921,-10,0,0.329469442368,0.0120742470026,41
801176000000,63214,801176000000,0,0.300000011921,-6,0,0.193468257785,0.0104749938473,40
801186000000,63215,801186000000,0,0.300000011921,8,-2,-0.247263029218,0.0619652867317,38
801197000000,63216,801197000000,0,0.300000011921,0,-1,0.00221535563469,0.0446147322655,36
801207000000,63217,801207000000,0,0.300000011921,-1,-1,0.0387419052422,0.0455330051482,34
801218000000,63218,801218000000,0,0.300000011921,0,-1,-0.00234597921371,0.0531878918409,35
801228000000,63219,801228000000,0,0.300000011921,5,-2,-0.172567814589,0.0726560279727,40
801238000000,63220,801238000000,0,0.300000011921,0,-2,-0.0211111456156,0.0638757497072,33
801248000000,63221,801248000000,0,0.300000011921,1,-1,-0.0378850325942,0.042925439775,30
801259000000,63222,801259000000,0,0.300000011921,0,-1,0.0250608026981,0.0482401289046,36
801270000000,63223,801270000000,0,0.300000011921,2,0,-0.0791724249721,0.0129182264209,42
801280000000,63224,801280000000,0,0.300000011921,0,-1,0.0152676701546,0.0440620221198,33
801290000000,63225,801290000000,0,0.300000011921,0,-1,0.00668152980506,0.0346492044628,31
801301000000,63226,801301000000,0,0.300000011921,0,-1,0.0217411369085,0.0408917851746,36
801312000000,63227,801312000000,0,0.300000011921,5,-2,-0.157836869359,0.0799016803503,47
801322000000,63228,801322000000,0,0.300000011921,-2,0,0.0795382708311,0.0224096793681,33
801332000000,63229,801332000000,0,0.300000011921,-2,-1,0.0663790106773,0.0593850873411,35
801343000000,63230,801343000000,0,0.300000011921,0,-2,-0.00861556828022,0.0778796076775,33
801353000000,63231,801353000000,0,0.300000011921,3,-2,-0.10880112648,0.0788542032242,39
801363000000,63232,801363000000,0,0.300000011921,0,-1,0.0288607478142,0.0567358769476,33
801373000000,63233,801373000000,0,0.300000011921,-1,-1,0.0300103724003,0.0556459650397,28
801384000000,63234,801384000000,0,0.300000011921,1,-3,-0.0563011169434,0.096166908741,29
801395000000,63235,801395000000,0,0.300000011921,4,-2,-0.148871228099,0.0704749375582,33
801405000000,63236,801405000000,0,0.300000011921,-1,-2,0.057892754674,0.0658981502056,31
801416000000,63237,801416000000,0,0.300000011921,-1,-2,0.0311002135277,0.0722286626697,37
801426000000,63238,801426000000,0,0.300000011921,1,-2,-0.037639811635,0.0797757208347,36
801437000000,63239,801437000000,0,0.300000011921,5,-2,-0.151660591364,0.0711246654391,41
801447000000,63240,801447000000,0,0.300000011921,-3,0,0.101877436042,0.0206591933966,37
801457000000,63241,801457000000,0,0.300000011921,-1,-2,0.0455868653953,0.0661382749677,26
801468000000,63242,801468000000,0,0.300000011921,0,-2,-0.00137788057327,0.0733047798276,35
801479000000,63243,801479000000,0,0.300000011921,3,-3,-0.0958066061139,0.096634298563,44
801488000000,63244,801488000000,0,0.300000011921,-4,0,0.125222027302,0.0248031392694,30
801499000000,63245,801499000000,0,0.300000011921,-5,-1,0.173291712999,0.044449467212,30
801509000000,63246,801509000000,0,0.300000011921,1,-2,-0.0435944646597,0.0643074885011,34
801520000000,63247,801520000000,0,0.300000011921,3,-2,-0.115409493446,0.0849279165268,37
801531000000,63248,801531000000,0,0.300000011921,-2,-1,0.0827448442578,0.0349723994732,37
801540000000,63249,801540000000,0,0.300000011921,-3,-1,0.10503180325,0.04214309901,28
801551000000,63250,801551000000,0,0.300000011921,1,-2,-0.0423052757978,0.066227003932,33
801562000000,63251,801562000000,0,0.300000011921,0,-1,-0.0192052386701,0.0366266742349,43
801572000000,63252,801572000000,0,0.300000011921,-4,0,0.122516036034,0.0236778464168,27
801582000000,63253,801582000000,0,0.300000011921,-3,-1,0.107714869082,0.0416604392231,25
801593000000,63254,801593000000,0,0.300000011921,0,-1,-0.0221690088511,0.0529397949576,36
801604000000,63255,801604000000,0,0.300000011921,1,-1,-0.0493258759379,0.0334030203521,35
801614000000,63256,801614000000,0,0.300000011921,-3,0,0.107466951013,0.0132061168551,35
801623000000,63257,801623000000,0,0.300000011921,-2,-1,0.0798226445913,0.0579430535436,22
801635000000,63258,801635000000,0,0.300000011921,0,-1,-0.0167891085148,0.0532581992447,40
801646000000,63259,801646000000,0,0.300000011921,3,-2,-0.118193723261,0.0734547153115,42
801656000000,63260,801656000000,0,0.300000011921,-4,0,0.140154615045,0.012074528262,34
801667000000,63261,801667000000,0,0.300000011921,-5,-1,0.174963533878,0.0456478446722,39
801677000000,63262,801677000000,0,0.300000011921,3,-2,-0.109177820385,0.0894971638918,43
801687000000,63263,801687000000,0,0.300000011921,6,-3,-0.196417048573,0.0982648581266,41
801697000000,63264,801697000000,0,0.300000011921,-2,-1,0.0794735625386,0.048744853586,33
801708000000,63265,801708000000,0,0.300000011921,-5,-1,0.150422558188,0.0479257777333,36
801719000000,63266,801719000000,0,0.300000011921,2,-2,-0.073759265244,0.0788616836071,39
801729000000,63267,801729000000,0,0.300000011921,2,-2,-0.0835256427526,0.0723482966423,42
801740000000,63268,801740000000,0,0.300000011921,-3,-1,0.114501155913,0.0470448695123,42
801750000000,63269,801750000000,0,0.300000011921,-4,0,0.131058350205,0.0297904498875,38
801761000000,63270,801761000000,0,0.300000011921,-7,0,0.228200063109,0.0206155329943,45
801771000000,63271,801771000000,0,0.300000011921,-12,0,0.363690316677,-0.00553246214986,40
801781000000,63272,801781000000,0,0.300000011921,-10,0,0.326757282019,-0.00421603163704,33
801791000000,63273,801791000000,0,0.300000011921,-12,0,0.386423528194,-0.00342134712264,31
801802000000,63274,801802000000,0,0.300000011921,-11,0,0.347292482853,-0.00444939918816,39
801812000000,63275,801812000000,0,0.300000011921,-11,0,0.357198297977,-0.0131137883291,38
801822000000,63276,801822000000,0,0.300000011921,-12,0,0.378108263016,0.0119971679524,30
801833000000,63277,801833000000,0,0.300000011921,-12,0,0.378786861897,0.0137675665319,34
801844000000,63278,801844000000,0,0.300000011921,-11,0,0.332397282124,-0.018491525203,40
801854000000,63279,801854000000,0,0.300000011921,-11,1,0.338787674904,-0.035040974617,37
801865000000,63280,801865000000,0,0.300000011921,-12,0,0.364604175091,-0.0145827224478,36
801875000000,63281,801875000000,0,0.300000011921,-12,0,0.366151928902,0.00276056770235,35
801886000000,63282,801886000000,0,0.300000011921,-12,0,0.364101946354,-0.0144721195102,40
801896000000,63283,801896000000,0,0.300000011921,-12,0,0.373390108347,0.0073681762442,39
801906000000,63284,801906000000,0,0.300000011921,-12,0,0.389874368906,-0.0112821217626,28
801916000000,63285,801916000000,0,0.300000011921,-12,0,0.378939270973,-0.000852305209264,33
801927000000,63286,801927000000,0,0.300000011921,-13,0,0.39031586051,0.0035493101459,38
801938000000,63287,801938000000,0,0.300000011921,-13,0,0.412983179092,0.00481770467013,42
801948000000,63288,801948000000,0,0.300000011921,-12,0,0.370056092739,0.000442346528871,36
801958000000,63289,801958000000,0,0.300000011921,-12,0,0.36137342453,-0.00303862662986,35
801969000000,63290,801969000000,0,0.300000011921,-11,0,0.344973623753,-0.0089917499572,35
801980000000,63291,801980000000,0,0.300000011921,-11,0,0.338973432779,0.0242764279246,40
801990000000,63292,801990000000,0,0.300000011921,-12,0,0.372139006853,0.00516741489992,37
802000000000,63293,802000000000,0,0.300000011921,-12,0,0.367977082729,0.011598944664,31
802011000000,63294,802011000000,0,0.300000011921,-10,0,0.324396878481,-0.00786843430251,45
802022000000,63295,802022000000,0,0.300000011921,-13,0,0.398747324944,-0.0204328112304,42
802031000000,63296,802031000000,0,0.300000011921,-12,0,0.381046533585,0.0138551928103,30
802042000000,63297,802042000000,0,0.300000011921,-11,0,0.347458392382,0.0107013015077,36
802053000000,63298,802053000000,0,0.300000011921,-12,0,0.380202054977,-0.00554294325411,42
802063000000,63299,802063000000,0,0.300000011921,-11,0,0.355817973614,-0.00549423927441,40
802074000000,63300,802074000000,0,0.300000011921,-13,0,0.391062736511,-0.000667840358801,40
802083000000,63301,802083000000,0,0.300000011921,-12,0,0.373173773289,-0.0149908456951,31
802095000000,63302,802095000000,0,0.300000011921,-11,0,0.346920967102,-0.00396195799112,44
802105000000,63303,802105000000,0,0.300000011921,-12,0,0.370249330997,-0.0274017285556,39
802115000000,63304,802115000000,0,0.300000011921,-10,0,0.324714958668,-0.0187308359891,32
802125000000,63305,802125000000,0,0.300000011921,-12,0,0.369635283947,0.0227852798998,36
802136000000,63306,802136000000,0,0.300000011921,-11,0,0.330470740795,-0.00779211428016,36
802147000000,63307,802147000000,0,0.300000011921,-12,0,0.374994546175,-0.00702466629446,41
802157000000,63308,802157000000,0,0.300000011921,-11,0,0.340798795223,-0.0126314172521,35
802167000000,63309,802167000000,0,0.300000011921,-11,0,0.340950489044,0.026425268501,37
802178000000,63310,802178000000,0,0.300000011921,-10,0,0.310841023922,0.00275033945218,39
802189000000,63311,802189000000,0,0.300000011921,-13,0,0.394624352455,-0.0190597586334,47
802199000000,63312,802199000000,0,0.300000011921,-11,0,0.357993811369,2.1681189537e-06,36
802210000000,63313,802210000000,0,0.300000011921,-11,0,0.350804835558,0.00209534727037,45
802220000000,63314,802220000000,0,0.300000011921,-9,0,0.289319485426,-0.0117264427245,42
802230000000,63315,802230000000,0,0.300000011921,-11,0,0.338059425354,-0.0132852811366,37
802240000000,63316,802240000000,0,0.300000011921,-12,0,0.386604189873,-0.0101023148745,26
802250000000,63317,802250000000,0,0.300000011921,-11,0,0.33047875762,0.0177877116948,32
802262000000,63318,802262000000,0,0.300000011921,-11,0,0.354664355516,-0.0150329293683,42
802272000000,63319,802272000000,0,0.300000011921,-12,0,0.37463888526,0.00545246060938,38
802282000000,63320,802282000000,0,0.300000011921,-11,0,0.331581860781,0.0149319311604,31
802293000000,63321,802293000000,0,0.300000011921,-12,0,0.367088377476,0.00219635665417,40
802303000000,63322,802303000000,0,0.300000011921,-10,0,0.30789411068,-0.0222064014524,42
802313000000,63323,802313000000,0,0.300000011921,-12,0,0.365164756775,-0.00644665863365,38
802324000000,63324,802324000000,0,0.300000011921,-11,0,0.342050939798,0.00166111718863,36
802334000000,63325,802334000000,0,0.300000011921,-13,0,0.3974185884,-0.00639000209048,39
802345000000,63326,802345000000,0,0.300000011921,-10,0,0.306470751762,-0.00753086665645,42
802356000000,63327,802356000000,0,0.300000011921,-13,0,0.390935361385,0.0072115669027,45
802365000000,63328,802365000000,0,0.300000011921,-11,0,0.358358949423,-0.0126446047798,35
802377000000,63329,802377000000,0,0.300000011921,-11,0,0.339604079723,-0.00801876932383,44
802387000000,63330,802387000000,0,0.300000011921,-11,0,0.330348730087,-0.00288737565279,39
802397000000,63331,802397000000,0,0.300000011921,-10,1,0.324092328548,-0.0322507917881,34
802407000000,63332,802407000000,0,0.300000011921,-11,0,0.33009660244,-0.012606786564,33
802418000000,63333,802418000000,0,0.300000011921,-11,0,0.335161209106,-0.00162363774143,34
802429000000,63334,802429000000,0,0.300000011921,-10,0,0.31868737936,-0.0258714798838,43
802439000000,63335,802439000000,0,0.300000011921,-12,0,0.374741137028,-0.0142717510462,40
802450000000,63336,802450000000,0,0.300000011921,-11,0,0.332003712654,0.00173609144986,39
802460000000,63337,802460000000,0,0.300000011921,-13,0,0.397731006145,-0.00224900222383,40
802470000000,63338,802470000000,0,0.300000011921,-10,0,0.305111348629,-0.00843823328614,38
802480000000,63339,802480000000,0,0.300000011921,-13,0,0.394208312035,-0.00671643204987,33
802491000000,63340,802491000000,0,0.300000011921,-10,0,0.325127661228,-0.0136778578162,34
802501000000,63341,802501000000,0,0.300000011921,-12,0,0.385713636875,-0.00482443440706,40
802512000000,63342,802512000000,0,0.300000011921,-10,0,0.300227224827,-0.0230653509498,39
802522000000,63343,802522000000,0,0.300000011921,-12,0,0.376346021891,-0.0128573328257,42
802532000000,63344,802532000000,0,0.300000011921,-12,0,0.382735103369,-0.00217631598935,35
802543000000,63345,802543000000,0,0.300000011921,-12,0,0.367951154709,-0.0138722946867,41
802554000000,63346,802554000000,0,0.300000011921,-11,0,0.339908987284,-0.0293680280447,43
802564000000,63347,802564000000,0,0.300000011921,-11,0,0.356081843376,0.00731391599402,39
802574000000,63348,802574000000,0,0.300000011921,-13,0,0.394032120705,0.00664940383285,35
802585000000,63349,802585000000,0,0.300000011921,-10,0,0.325156271458,-0.0244654286653,39
802596000000,63350,802596000000,0,0.300000011921,-11,0,0.343171417713,-0.00562508683652,45
802606000000,63351,802606000000,0,0.300000011921,-12,0,0.378815203905,-0.00638977624476,38
802617000000,63352,802617000000,0,0.300000011921,-9,0,0.298676520586,0.00079901330173,45
802626000000,63353,802626000000,0,0.300000011921,-13,0,0.396421849728,-0.00924905855209,37
802637000000,63354,802637000000,0,0.300000011921,-9,1,0.290670543909,-0.0398768372834,40
802647000000,63355,802647000000,0,0.300000011921,-12,0,0.376635491848,-0.0179726351053,33
802658000000,63356,802658000000,0,0.300000011921,-10,0,0.329118609428,-0.00532496860251,34
802668000000,63357,802668000000,0,0.300000011921,-12,1,0.364012002945,-0.0317796207964,36
802680000000,63358,802680000000,0,0.300000011921,-10,0,0.312701612711,-0.00180119392462,51
802689000000,63359,802689000000,0,0.300000011921,-12,0,0.364827483892,-0.0201662965119,39
802699000000,63360,802699000000,0,0.300000011921,-11,0,0.33247384429,-0.0138438204303,35
802710000000,63361,802710000000,0,0.300000011921,-11,0,0.330910801888,-0.00680397404358,32
802721000000,63362,802721000000,0,0.300000011921,-11,0,0.335810661316,-0.0236029662192,44
802731000000,63363,802731000000,0,0.300000011921,-11,0,0.335011482239,-0.0243518259376,41
802741000000,63364,802741000000,0,0.300000011921,-12,0,0.379408419132,-0.00431345310062,36
802752000000,63365,802752000000,0,0.300000011921,-11,0,0.355385839939,-0.0212758425623,39
802763000000,63366,802763000000,0,0.300000011921,-12,0,0.386157155037,0.00750223733485,46
802773000000,63367,802773000000,0,0.300000011921,-11,0,0.350877672434,-0.0148797454312,36
802782000000,63368,802782000000,0,0.300000011921,-11,0,0.351682186127,-0.0129712857306,28
802794000000,63369,802794000000,0,0.300000011921,-11,0,0.35033711791,-0.0294577032328,47
802805000000,63370,802805000000,0,0.300000011921,-11,0,0.34657740593,-0.00194500945508,45
802814000000,63371,802814000000,0,0.300000011921,-12,0,0.386943340302,-0.00952775496989,29
802824000000,63372,802824000000,0,0.300000011921,-12,0,0.366526126862,-0.0159084293991,32
802835000000,63373,802835000000,0,0.300000011921,-12,1,0.368511587381,-0.0359717085958,32
802846000000,63374,802846000000,0,0.300000011921,-11,0,0.336448132992,0.00238020485267,46
802855000000,63375,802855000000,0,0.300000011921,-11,0,0.352151662111,-0.0182311777025,28
802866000000,63376,802866000000,0,0.300000011921,-12,0,0.372553676367,0.00695269694552,36
802877000000,63377,802877000000,0,0.300000011921,-12,0,0.365337431431,-0.00730680627748,35
802887000000,63378,802887000000,0,0.300000011921,-12,0,0.383243352175,-0.0123340887949,38
802897000000,63379,802897000000,0,0.300000011921,-10,0,0.329566121101,-0.0125639848411,32
802908000000,63380,802908000000,0,0.300000011921,-12,0,0.375382721424,0.000378518365324,28
802918000000,63381,802918000000,0,0.300000011921,-10,0,0.312915593386,-0.0273836720735,34
802929000000,63382,802929000000,0,0.300000011921,-12,0,0.36794424057,-0.00732058053836,39
802940000000,63383,802940000000,0,0.300000011921,-12,0,0.366988837719,-0.00952207669616,38
802949000000,63384,802949000000,0,0.300000011921,-12,0,0.364521026611,0.00299067096785,28
802961000000,63385,802961000000,0,0.300000011921,-12,0,0.377776622772,-0.00670359004289,40
802971000000,63386,802971000000,0,0.300000011921,-11,0,0.34428575635,-0.00755978981033,41
802981000000,63387,802981000000,0,0.300000011921,-11,0,0.342053413391,-0.0149881346151,34
802991000000,63388,802991000000,0,0.300000011921,-12,0,0.369177162647,0.000229095254326,26
803002000000,63389,803002000000,0,0.300000011921,-11,0,0.353466212749,-0.0242663752288,37
803013000000,63390,803013000000,0,0.300000011921,-12,0,0.360930263996,0.00184833398089,39
803022000000,63391,803022000000,0,0.300000011921,-11,1,0.334487855434,-0.032360650599,28
803033000000,63392,803033000000,0,0.300000011921,-12,0,0.38062030077,-0.00651490502059,26
803044000000,63393,803044000000,0,0.300000011921,-11,0,0.340942025185,-0.00899398606271,40
803054000000,63394,803054000000,0,0.300000011921,-11,0,0.359004974365,-0.00398160237819,36
803064000000,63395,803064000000,0,0.300000011921,-11,0,0.345990896225,-0.0157368537039,29
803075000000,63396,803075000000,0,0.300000011921,-13,0,0.401331067085,-0.00837730057538,28
803086000000,63397,803086000000,0,0.300000011921,-11,0,0.34983420372,-0.0194662474096,45
803096000000,63398,803096000000,0,0.300000011921,-12,0,0.385063916445,-0.000697986222804,38
803106000000,63399,803106000000,0,0.300000011921,-12,0,0.388345956802,-0.00171897839755,31
803117000000,63400,803117000000,0,0.300000011921,-12,0,0.368193626404,-0.00305815483443,36
803128000000,63401,803128000000,0,0.300000011921,-11,0,0.340534687042,-0.0224740412086,39
803138000000,63402,803138000000,0,0.300000011921,-11,0,0.343307614326,-0.0185468569398,36
803148000000,63403,803148000000,0,0.300000011921,-12,0,0.365648657084,-0.0291184652597,34
803158000000,63404,803158000000,0,0.300000011921,-12,0,0.373360514641,-0.00248638726771,31
803169000000,63405,803169000000,0,0.300000011921,-11,0,0.350554227829,-0.0182196721435,36
803180000000,63406,803180000000,0,0.300000011921,-12,0,0.364574611187,-0.0138918720186,36
803190000000,63407,803190000000,0,0.300000011921,-11,0,0.335848152637,-0.0125834643841,37
803200000000,63408,803200000000,0,0.300000011921,-13,0,0.404596328735,-0.00134101870935,31
803211000000,63409,803211000000,0,0.300000011921,-11,0,0.359308421612,-0.0174291525036,42
803221000000,63410,803221000000,0,0.300000011921,-13,0,0.39518815279,-0.00270100007765,36
803231000000,63411,803231000000,0,0.300000011921,-11,0,0.352940678596,-0.00181875098497,30
803242000000,63412,803242000000,0,0.300000011921,-12,0,0.38119161129,-0.00301521271467,27
803252000000,63413,803252000000,0,0.300000011921,-11,0,0.33111089468,-0.0295543298125,31
803263000000,63414,803263000000,0,0.300000011921,-13,0,0.392155259848,-0.0212260875851,30
803273000000,63415,803273000000,0,0.300000011921,-13,0,0.399189651012,0.0058077396825,29
803283000000,63416,803283000000,0,0.300000011921,-12,0,0.374282330275,-0.00815092027187,30
803295000000,63417,803295000000,0,0.300000011921,-11,0,0.336831569672,0.0073296232149,39
803305000000,63418,803305000000,0,0.300000011921,-11,0,0.354132890701,-0.0153051633388,43
803314000000,63419,803314000000,0,0.300000011921,-13,0,0.408957570791,0.00394786708057,25
803325000000,63420,803325000000,0,0.300000011921,-12,0,0.373515427113,-0.0126025779173,27
803336000000,63421,803336000000,0,0.300000011921,-12,0,0.363180339336,0.0152896037325,40
803346000000,63422,803346000000,0,0.300000011921,-13,0,0.397826433182,-0.0060182409361,30
803356000000,63423,803356000000,0,0.300000011921,-10,0,0.309950828552,0.0137154590338,25
803367000000,63424,803367000000,0,0.300000011921,-13,0,0.401384711266,0.0104045057669,27
803377000000,63425,803377000000,0,0.300000011921,-12,0,0.368486762047,0.00451238686219,30
803388000000,63426,803388000000,0,0.300000011921,-12,0,0.37627312541,-0.0277193412185,30
803399000000,63427,803399000000,0,0.300000011921,-11,0,0.350335538387,-0.0100816292688,36
803409000000,63428,803409000000,0,0.300000011921,-12,0,0.380993425846,0.00475109647959,30
803419000000,63429,803419000000,0,0.300000011921,-11,0,0.340622127056,-0.0295178312808,29
803430000000,63430,803430000000,0,0.300000011921,-13,0,0.405575215816,-0.000455226749182,30
803440000000,63431,803440000000,0,0.300000011921,-11,0,0.351640105247,-0.00510626938194,28
803451000000,63432,803451000000,0,0.300000011921,-12,0,0.366511464119,-0.00304706417955,34
803462000000,63433,803462000000,0,0.300000011921,-9,-1,0.278603285551,0.0303574763238,42
803471000000,63434,803471000000,0,0.300000011921,-12,0,0.37802246213,-0.000235946383327,31
803481000000,63435,803481000000,0,0.300000011921,-13,0,0.401395201683,-0.00880550220609,22
803492000000,63436,803492000000,0,0.300000011921,-12,0,0.377545028925,-0.00985888577998,32
803503000000,63437,803503000000,0,0.300000011921,-11,0,0.331107139587,0.026821911335,39
803513000000,63438,803513000000,0,0.300000011921,-11,0,0.351105153561,-0.00599478418007,30
803524000000,63439,803524000000,0,0.300000011921,-11,0,0.347202628851,0.00259540695697,30
803534000000,63440,803534000000,0,0.300000011921,-13,0,0.41596531868,-0.0056831385009,27
803545000000,63441,803545000000,0,0.300000011921,-8,0,0.25283446908,-0.00721368007362,40
803555000000,63442,803555000000,0,0.300000011921,-13,0,0.392460048199,-0.00240760343149,32
803565000000,63443,803565000000,0,0.300000011921,-10,0,0.321297317743,0.024161240086,29
803576000000,63444,803576000000,0,0.300000011921,-12,0,0.365889370441,0.0173994973302,35
803587000000,63445,803587000000,0,0.300000011921,-11,0,0.345567166805,0.00424376595765,35
803597000000,63446,803597000000,0,0.300000011921,-12,0,0.361090570688,0.0194131731987,36
803607000000,63447,803607000000,0,0.300000011921,-11,0,0.347132265568,-0.00808169692755,28
803618000000,63448,803618000000,0,0.300000011921,-12,0,0.365125924349,-0.00738888606429,32
803629000000,63449,803629000000,0,0.300000011921,-11,-1,0.345276385546,0.0394759997725,43
803639000000,63450,803639000000,0,0.300000011921,-11,0,0.356782764196,0.00420683529228,42
803649000000,63451,803649000000,0,0.300000011921,-11,0,0.334959208965,0.0291164796799,35
803660000000,63452,803660000000,0,0.300000011921,-12,0,0.361256837845,-0.00363589404151,37
803671000000,63453,803671000000,0,0.300000011921,-10,0,0.312232643366,-0.0174802225083,44
803680000000,63454,803680000000,0,0.300000011921,-12,0,0.388826847076,-0.0141110997647,35
803690000000,63455,803690000000,0,0.300000011921,-11,0,0.349221289158,0.0134821850806,28
803702000000,63456,803702000000,0,0.300000011921,-10,0,0.328133225441,0.0272944234312,37
803712000000,63457,803712000000,0,0.300000011921,-9,-1,0.2746501863,0.0346561297774,43
803722000000,63458,803722000000,0,0.300000011921,-12,0,0.380562841892,0.0299175847322,31
803732000000,63459,803732000000,0,0.300000011921,-12,0,0.365549445152,-0.00526029709727,28
803743000000,63460,803743000000,0,0.300000011921,-12,0,0.362802028656,-0.0171407926828,37
803754000000,63461,803754000000,0,0.300000011921,-9,0,0.288620889187,0.0186253096908,38
803764000000,63462,803764000000,0,0.300000011921,-10,0,0.321507334709,0.0115807205439,36
803774000000,63463,803774000000,0,0.300000011921,-11,0,0.345515608788,0.0151598788798,34
803784000000,63464,803784000000,0,0.300000011921,-9,0,0.299491882324,0.0289954263717,30
803796000000,63465,803796000000,0,0.300000011921,-10,-1,0.318237483501,0.0360624566674,40
803806000000,63466,803806000000,0,0.300000011921,-10,0,0.319691419601,0.0158921349794,37
803816000000,63467,803816000000,0,0.300000011921,-12,0,0.370462834835,-0.0128539977595,28
803827000000,63468,803827000000,0,0.300000011921,-10,0,0.306938171387,-0.00476607587188,42
803837000000,63469,803837000000,0,0.300000011921,-10,0,0.315400779247,0.0129360063002,40
803848000000,63470,803848000000,0,0.300000011921,-11,0,0.348327368498,0.00659279152751,39
803858000000,63471,803858000000,0,0.300000011921,-11,0,0.359727323055,0.00127291842364,41
803869000000,63472,803869000000,0,0.300000011921,-11,0,0.354829192162,-0.00684811128303,40
803879000000,63473,803879000000,0,0.300000011921,-9,1,0.271863996983,-0.0403738096356,41
803890000000,63474,803890000000,0,0.300000011921,-12,0,0.368109285831,-0.0150469336659,44
803899000000,63475,803899000000,0,0.300000011921,-9,0,0.296228528023,0.00788026675582,33
803911000000,63476,803911000000,0,0.300000011921,-12,0,0.387861251831,0.00838055927306,53
803921000000,63477,803921000000,0,0.300000011921,-9,0,0.298453837633,0.0224411208183,44
803931000000,63478,803931000000,0,0.300000011921,-12,0,0.378622919321,-0.00584159884602,38
803941000000,63479,803941000000,0,0.300000011921,-13,0,0.408297270536,0.00137548614293,34
803952000000,63480,803952000000,0,0.300000011921,-12,0,0.360560655594,-0.00677588023245,39
803963000000,63481,803963000000,0,0.300000011921,-10,0,0.325867146254,0.0102915046737,40
803973000000,63482,803973000000,0,0.300000011921,-11,0,0.35207349062,-0.00262837973423,39
803983000000,63483,803983000000,0,0.300000011921,-13,0,0.39201387763,-0.003011288587,37
803994000000,63484,803994000000,0,0.300000011921,-11,0,0.352674901485,-0.0027714446187,40
804005000000,63485,804005000000,0,0.300000011921,-12,0,0.36479562521,-0.00219937856309,43
804015000000,63486,804015000000,0,0.300000011921,-13,0,0.395270526409,-0.00549842789769,41
804025000000,63487,804025000000,0,0.300000011921,-12,0,0.369361341,-0.00301561690867,36
804036000000,63488,804036000000,0,0.300000011921,-13,0,0.40181428194,0.00172908010427,44
804047000000,63489,804047000000,0,0.300000011921,-12,0,0.373615473509,0.0139642525464,45
804057000000,63490,804057000000,0,0.300000011921,-12,0,0.377544283867,-0.0112441610545,41
804067000000,63491,804067000000,0,0.300000011921,-11,0,0.352470576763,-0.00279669463634,42
804078000000,63492,804078000000,0,0.300000011921,-12,0,0.37358880043,-0.0106329601258,41
804088000000,63493,804088000000,0,0.300000011921,-11,0,0.351046830416,0.00743308803067,44
804099000000,63494,804099000000,0,0.300000011921,-12,0,0.384789645672,0.00619169231504,44
804109000000,63495,804109000000,0,0.300000011921,-13,0,0.400017291307,0.00332415662706,41
804120000000,63496,804120000000,0,0.300000011921,-10,1,0.319382369518,-0.0337706916034,45
804130000000,63497,804130000000,0,0.300000011921,-11,0,0.349557995796,0.0021654125303,42
804140000000,63498,804140000000,0,0.300000011921,-11,0,0.346799015999,-0.0116005679592,35
804150000000,63499,804150000000,0,0.300000011921,-13,0,0.390753775835,-0.0150629077107,37
804161000000,63500,804161000000,0,0.300000011921,-12,0,0.360055923462,-0.00298178032972,42
804172000000,63501,804172000000,0,0.300000011921,-11,0,0.351052165031,-0.00284613366239,48
804182000000,63502,804182000000,0,0.300000011921,-12,0,0.37503439188,0.00206110067666,43
804192000000,63503,804192000000,0,0.300000011921,-12,0,0.370641291142,-0.00491134403273,35
804203000000,63504,804203000000,0,0.300000011921,-12,0,0.363644242287,-0.0225733797997,44
804214000000,63505,804214000000,0,0.300000011921,-11,0,0.342876553535,-0.0237415190786,46
804224000000,63506,804224000000,0,0.300000011921,-12,0,0.387821137905,-0.000659143843222,41
804234000000,63507,804234000000,0,0.300000011921,-11,0,0.338580369949,0.00287766568363,44
804245000000,63508,804245000000,0,0.300000011921,-10,1,0.325833022594,-0.0430867820978,41
804255000000,63509,804255000000,0,0.300000011921,-11,0,0.353852748871,-0.0112287215889,39
804265000000,63510,804265000000,0,0.300000011921,-11,0,0.359662592411,-0.00771429436281,33
804276000000,63511,804276000000,0,0.300000011921,-12,0,0.378109574318,-0.0149678736925,41
804287000000,63512,804287000000,0,0.300000011921,-10,0,0.307454943657,-0.00702945096418,44
804297000000,63513,804297000000,0,0.300000011921,-11,0,0.356134355068,-0.0147649170831,45
804306000000,63514,804306000000,0,0.300000011921,-11,0,0.333524912596,-0.00977058149874,31
804317000000,63515,804317000000,0,0.300000011921,-11,0,0.351003646851,-0.0263229571283,31
804328000000,63516,804328000000,0,0.300000011921,-10,0,0.328350424767,0.00228539761156,43
804339000000,63517,804339000000,0,0.300000011921,-13,0,0.397990942001,0.00414057727903,43
804349000000,63518,804349000000,0,0.300000011921,-11,0,0.359897851944,-0.0118262916803,37
804359000000,63519,804359000000,0,0.300000011921,-12,0,0.366442143917,-0.001326023601,39
804370000000,63520,804370000000,0,0.300000011921,-11,0,0.340025603771,-0.0275104288012,40
804380000000,63521,804380000000,0,0.300000011921,-11,0,0.357656121254,0.011787224561,39
804390000000,63522,804390000000,0,0.300000011921,-11,1,0.35484573245,-0.0311672370881,36
804401000000,63523,804401000000,0,0.300000011921,-11,0,0.357411801815,-0.000590138137341,42
804412000000,63524,804412000000,0,0.300000011921,-11,0,0.35269716382,-0.0258266292512,45
804422000000,63525,804422000000,0,0.300000011921,-10,0,0.322172284126,-0.0232933554798,46
804432000000,63526,804432000000,0,0.300000011921,-10,1,0.325283646584,-0.0453600287437,40
804442000000,63527,804442000000,0,0.300000011921,-12,1,0.36805331707,-0.0434061400592,33
804453000000,63528,804453000000,0,0.300000011921,-10,1,0.307334333658,-0.0472995303571,42
804464000000,63529,804464000000,0,0.300000011921,-11,0,0.354890167713,-0.00507617089897,42
804474000000,63530,804474000000,0,0.300000011921,-11,0,0.340687155724,-0.00520161073655,35
804484000000,63531,804484000000,0,0.300000011921,-12,0,0.3769993186,0.00794984959066,38
804495000000,63532,804495000000,0,0.300000011921,-11,0,0.338838875294,-0.015226864256,39
804505000000,63533,804505000000,0,0.300000011921,-12,0,0.372966647148,-0.0265266820788,37
804516000000,63534,804516000000,0,0.300000011921,-11,0,0.33776730299,-0.0197142269462,36
804526000000,63535,804526000000,0,0.300000011921,-11,0,0.355566203594,-0.00210447446443,38
804537000000,63536,804537000000,0,0.300000011921,-10,0,0.324355334044,-0.0268720835447,37
804547000000,63537,804547000000,0,0.300000011921,-10,0,0.324081897736,-0.0167196486145,40
804557000000,63538,804557000000,0,0.300000011921,-12,0,0.376728713512,0.00611784635112,31
804567000000,63539,804567000000,0,0.300000011921,-12,0,0.371988922358,-0.0227968487889,30
804579000000,63540,804579000000,0,0.300000011921,-12,0,0.362578868866,-0.0106173176318,49
804589000000,63541,804589000000,0,0.300000011921,-11,0,0.332958102226,-0.0276739634573,42
804599000000,63542,804599000000,0,0.300000011921,-11,0,0.350437253714,-0.0213871113956,36
804609000000,63543,804609000000,0,0.300000011921,-12,0,0.384341329336,-0.0146243143827,36
804621000000,63544,804621000000,0,0.300000011921,-10,1,0.318799644709,-0.030655875802,47
804631000000,63545,804631000000,0,0.300000011921,-11,1,0.358238816261,-0.0399413220584,39
804641000000,63546,804641000000,0,0.300000011921,-11,0,0.352911829948,-0.00725563149899,34
804651000000,63547,804651000000,0,0.300000011921,-11,0,0.349436283112,-0.0141799831763,39
804662000000,63548,804662000000,0,0.300000011921,-9,0,0.275204002857,-0.023777095601,41
804672000000,63549,804672000000,0,0.300000011921,-11,0,0.352691829205,-0.0110831409693,36
804682000000,63550,804682000000,0,0.300000011921,-12,0,0.375111818314,-0.0183598920703,32
804692000000,63551,804692000000,0,0.300000011921,-11,0,0.351266443729,-0.00539627112448,28
804704000000,63552,804704000000,0,0.300000011921,-11,2,0.334641396999,-0.0784246772528,45
804714000000,63553,804714000000,0,0.300000011921,-11,1,0.332125544548,-0.0483988150954,43
804724000000,63554,804724000000,0,0.300000011921,-12,0,0.377542853355,-0.0184216555208,31
804734000000,63555,804734000000,0,0.300000011921,-12,0,0.363814413548,-0.0243454556912,33
804746000000,63556,804746000000,0,0.300000011921,-9,2,0.294682741165,-0.0719900503755,42
804756000000,63557,804756000000,0,0.300000011921,-11,1,0.34459361434,-0.0349525399506,37
804766000000,63558,804766000000,0,0.300000011921,-10,0,0.315429210663,-0.0202636774629,37
804777000000,63559,804777000000,0,0.300000011921,-12,0,0.362904429436,-0.00604356313124,37
804787000000,63560,804787000000,0,0.300000011921,-9,1,0.294256001711,-0.0395431481302,41
804797000000,63561,804797000000,0,0.300000011921,-11,1,0.359286606312,-0.0504076182842,36
804808000000,63562,804808000000,0,0.300000011921,-10,0,0.312283664942,0.000378110911697,36
804818000000,63563,804818000000,0,0.300000011921,-12,0,0.378047883511,-0.0240849852562,33
804828000000,63564,804828000000,0,0.300000011921,-11,0,0.344692140818,-0.0084230825305,32
804839000000,63565,804839000000,0,0.300000011921,-13,0,0.390359222889,-0.0136389378458,38
804849000000,63566,804849000000,0,0.300000011921,-13,0,0.392940849066,0.00757284741849,28
804859000000,63567,804859000000,0,0.300000011921,-11,0,0.350282073021,-0.00884178094566,29
804870000000,63568,804870000000,0,0.300000011921,-10,0,0.31489521265,0.00267772795632,35
804880000000,63569,804880000000,0,0.300000011921,-12,0,0.380530416965,-0.00267430651002,31
804890000000,63570,804890000000,0,0.300000011921,-11,1,0.350203096867,-0.0378605425358,25
804901000000,63571,804901000000,0,0.300000011921,-11,0,0.357955515385,-0.016903411597,28
804912000000,63572,804912000000,0,0.300000011921,-12,0,0.36140692234,-0.0122700212523,38
804922000000,63573,804922000000,0,0.300000011921,-12,0,0.376359760761,-0.0296254623681,32
804934000000,63574,804934000000,0,0.300000011921,-11,0,0.359133541584,0.00736047979444,43
804943000000,63575,804943000000,0,0.300000011921,-12,1,0.368596494198,-0.0405806452036,35
804954000000,63576,804954000000,0,0.300000011921,-10,1,0.319954544306,-0.0351354777813,36
804964000000,63577,804964000000,0,0.300000011921,-12,1,0.360493063927,-0.0364009067416,31
804975000000,63578,804975000000,0,0.300000011921,-11,0,0.348228216171,0.0115114953369,34
804984000000,63579,804984000000,0,0.300000011921,-12,0,0.378645032644,-0.0264605488628,25
804996000000,63580,804996000000,0,0.300000011921,-9,0,0.284342050552,-0.0299584157765,37
805006000000,63581,805006000000,0,0.300000011921,-11,1,0.331613063812,-0.0337211191654,33
805016000000,63582,805016000000,0,0.300000011921,-12,0,0.369511127472,-0.0248888265342,26
805027000000,63583,805027000000,0,0.300000011921,-11,0,0.347762703896,-0.0171652510762,31
805037000000,63584,805037000000,0,0.300000011921,-12,0,0.366582036018,-0.00781687349081,37
805047000000,63585,805047000000,0,0.300000011921,-10,1,0.328087598085,-0.0417434945703,31
805058000000,63586,805058000000,0,0.300000011921,-12,0,0.385434746742,-0.00926284492016,27
805069000000,63587,805069000000,0,0.300000011921,-11,0,0.332135856152,-0.00338586466387,43
805079000000,63588,805079000000,0,0.300000011921,-11,1,0.334688305855,-0.0459357909858,34
805090000000,63589,805090000000,0,0.300000011921,-12,0,0.367240011692,-0.0181502178311,36
805100000000,63590,805100000000,0,0.300000011921,-11,0,0.345686525106,0.00412414781749,30
805111000000,63591,805111000000,0,0.300000011921,-12,0,0.37382209301,-0.0253373123705,36
805121000000,63592,805121000000,0,0.300000011921,-10,1,0.305795431137,-0.0401785075665,39
805131000000,63593,805131000000,0,0.300000011921,-12,0,0.370963484049,-0.0235470309854,35
805142000000,63594,805142000000,0,0.300000011921,-12,0,0.36110663414,-0.0125820692629,34
805152000000,63595,805152000000,0,0.300000011921,-12,0,0.388160407543,-0.0136005142704,34
805163000000,63596,805163000000,0,0.300000011921,-9,0,0.298314809799,-0.0189752206206,46
805173000000,63597,805173000000,0,0.300000011921,-12,0,0.364001750946,-0.0171506050974,41
805183000000,63598,805183000000,0,0.300000011921,-12,0,0.37888661027,0.0132854748517,30
805195000000,63599,805195000000,0,0.300000011921,-12,0,0.367862939835,-0.019590748474,46
805204000000,63600,805204000000,0,0.300000011921,-11,1,0.349924981594,-0.0346786305308,37
805214000000,63601,805214000000,0,0.300000011921,-11,0,0.344522953033,-0.0256555471569,30
805225000000,63602,805225000000,0,0.300000011921,-13,0,0.408342629671,0.00140137039125,30
805237000000,63603,805237000000,0,0.300000011921,-11,0,0.35434961319,-0.00974313542247,47
805247000000,63604,805247000000,0,0.300000011921,-11,1,0.333810985088,-0.0390836596489,43
805256000000,63605,805256000000,0,0.300000011921,-12,0,0.37231773138,0.00159561855253,33
805267000000,63606,805267000000,0,0.300000011921,-11,0,0.350509822369,0.00394761003554,31
805278000000,63607,805278000000,0,0.300000011921,-11,0,0.351648539305,-0.00720659922808,35
805288000000,63608,805288000000,0,0.300000011921,-9,0,0.277577489614,0.000212273560464,42
805298000000,63609,805298000000,0,0.300000011921,-12,0,0.372860580683,-0.0136705702171,35
805308000000,63610,805308000000,0,0.300000011921,-11,0,0.335063457489,0.00788428168744,31
805320000000,63611,805320000000,0,0.300000011921,-13,0,0.394500553608,-0.00501880282536,42
805330000000,63612,805330000000,0,0.300000011921,-11,0,0.340779572725,-0.0179316475987,37
805340000000,63613,805340000000,0,0.300000011921,-13,0,0.390663683414,-0.00560280308127,30
805351000000,63614,805351000000,0,0.300000011921,-12,0,0.385513961315,0.00448162853718,37
805361000000,63615,805361000000,0,0.300000011921,-11,0,0.341373324394,-0.0215619280934,40
805372000000,63616,805372000000,0,0.300000011921,-12,0,0.386865139008,-0.0222179871053,42
805382000000,63617,805382000000,0,0.300000011921,-12,0,0.36716529727,0.00296960701235,37
805392000000,63618,805392000000,0,0.300000011921,-12,0,0.385689556599,0.0139864254743,27
805403000000,63619,805403000000,0,0.300000011921,-11,0,0.338961452246,0.00811321847141,35
805413000000,63620,805413000000,0,0.300000011921,-13,0,0.405420988798,0.00949892681092,32
805424000000,63621,805424000000,0,0.300000011921,-12,0,0.384358167648,0.00345587055199,38
805434000000,63622,805434000000,0,0.300000011921,-10,0,0.327237546444,0.00867632497102,37
805445000000,63623,805445000000,0,0.300000011921,-11,-1,0.339623987675,0.0396773964167,42
805455000000,63624,805455000000,0,0.300000011921,-12,0,0.366511672735,-0.00731898006052,37
805465000000,63625,805465000000,0,0.300000011921,-12,0,0.383844733238,-0.00415119063109,26
805475000000,63626,805475000000,0,0.300000011921,-11,0,0.340439975262,-0.00314571871422,23
805487000000,63627,805487000000,0,0.300000011921,-13,0,0.401248753071,-0.0256525911391,45
805497000000,63628,805497000000,0,0.300000011921,-11,0,0.357757747173,0.0132830599323,41
805507000000,63629,805507000000,0,0.300000011921,-12,0,0.387552201748,0.00296834646724,40
805517000000,63630,805517000000,0,0.300000011921,-12,0,0.368335366249,0.0103034339845,36
805528000000,63631,805528000000,0,0.300000011921,-10,0,0.325437605381,-0.010749001056,32
805539000000,63632,805539000000,0,0.300000011921,-13,0,0.398780405521,-0.00239961827174,39
805549000000,63633,805549000000,0,0.300000011921,-11,0,0.350809574127,0.00908132456243,34
805559000000,63634,805559000000,0,0.300000011921,-12,0,0.382824480534,-0.00426652655005,31
805571000000,63635,805571000000,0,0.300000011921,-10,0,0.320962786674,0.00546985352412,50
805581000000,63636,805581000000,0,0.300000011921,-12,0,0.36261099577,-0.00341808330268,44
805591000000,63637,805591000000,0,0.300000011921,-12,0,0.373410463333,0.00392596796155,39
805601000000,63638,805601000000,0,0.300000011921,-11,0,0.342951446772,0.00249631796032,37
805612000000,63639,805612000000,0,0.300000011921,-12,0,0.386427521706,0.0236507747322,46
805622000000,63640,805622000000,0,0.300000011921,-12,0,0.361667782068,0.00688015576452,40
805632000000,63641,805632000000,0,0.300000011921,-12,0,0.385606467724,-0.0010017408058,29
805643000000,63642,805643000000,0,0.300000011921,-11,0,0.340727418661,0.00258815474808,35
805654000000,63643,805654000000,0,0.300000011921,-13,0,0.397202432156,0.0115080159158,46
805664000000,63644,805664000000,0,0.300000011921,-12,0,0.374184072018,0.0059606670402,40
805674000000,63645,805674000000,0,0.300000011921,-12,0,0.387797743082,0.0179827474058,39
805685000000,63646,805685000000,0,0.300000011921,-12,0,0.378253519535,0.00272388989106,37
805695000000,63647,805695000000,0,0.300000011921,-10,0,0.310829222202,0.00752650387585,42
805706000000,63648,805706000000,0,0.300000011921,-12,0,0.387265652418,8.51592049003e-05,43
805715000000,63649,805715000000,0,0.300000011921,-11,0,0.355786681175,-0.0162639599293,28
805726000000,63650,805726000000,0,0.300000011921,-12,0,0.373738408089,-0.00026173342485,32
805737000000,63651,805737000000,0,0.300000011921,-11,0,0.33839198947,0.00215434655547,41
805747000000,63652,805747000000,0,0.300000011921,-13,0,0.401632130146,-0.00827275216579,40
805757000000,63653,805757000000,0,0.300000011921,-12,0,0.38261371851,0.0113676348701,31
805768000000,63654,805768000000,0,0.300000011921,-11,0,0.359254539013,-0.000189686194062,37
805779000000,63655,805779000000,0,0.300000011921,-12,-1,0.360942840576,0.0315031185746,40
805789000000,63656,805789000000,0,0.300000011921,-11,0,0.355674505234,4.19849529862e-05,37
805799000000,63657,805799000000,0,0.300000011921,-12,0,0.374751985073,0.01797718741,33
805809000000,63658,805809000000,0,0.300000011921,-12,0,0.366272121668,-0.00227063335478,28
805821000000,63659,805821000000,0,0.300000011921,-12,0,0.3796839118,0.00531455827877,45
805831000000,63660,805831000000,0,0.300000011921,-12,0,0.363842189312,-0.00350946048275,41
805841000000,63661,805841000000,0,0.300000011921,-12,0,0.388822555542,0.013996778056,33
805851000000,63662,805851000000,0,0.300000011921,-12,0,0.382188081741,-0.0167820118368,35
